City_ID,City,Lat,Lng,Max Temp,Humidity,Cloudiness,Wind Speed,Country,Date
0,port keats,59.7035,30.7861,-4.0,86,75,2.0,RU,1612064567
1,hurghada,51.735,39.1496,2.0,93,90,9.0,RU,1612064963
2,coahuayana,-14.25,129.55,26.49,88,100,4.96,AU,1612064963
3,itarema,70.6333,147.9167,-34.56,85,0,3.86,RU,1612064589
4,arteaga,-37.8333,140.7667,21.0,49,40,3.6,AU,1612064963
5,yorosso,-33.9258,18.4232,20.0,77,75,4.12,ZA,1612064626
6,deventer,70.4692,-68.5914,-19.0,92,90,1.02,CA,1612064857
7,bethel,62.456,-114.3525,-28.89,76,1,2.06,CA,1612064567
8,saint-philippe,-24.8667,113.6333,34.0,52,2,4.63,AU,1612064858
9,cayenne,-0.9492,100.3543,28.46,67,96,2.9,ID,1612064911
10,valleyview,23.45,-110.2167,20.0,84,68,1.79,MX,1612064702
11,ayorou,15.7432,-96.4661,25.0,84,2,0.89,MX,1612064964
12,xining,-42.8794,147.3294,22.22,42,40,5.66,AU,1612064565
13,podgornoye,46.4856,135.8833,-21.46,84,13,2.65,RU,1612064964
14,kavieng,39.05,-27.9833,16.43,97,96,9.48,PT,1612064857
15,nanortalik,-30.6937,26.7114,16.44,66,0,0.92,ZA,1612064964
16,belaya gora,68.75,161.3,-37.04,83,0,1.29,RU,1612064850
17,sabang,-25.8102,28.7425,19.44,94,7,0.51,ZA,1612064964
18,simoes,63.1792,14.6357,-16.0,85,90,0.45,SE,1612064964
19,jurm,-53.15,-70.9167,9.0,71,0,9.26,CL,1612064591
20,uarini,57.79,-152.4072,-1.0,55,1,8.23,US,1612064964
21,pyapon,-42.7826,147.0587,22.22,35,8,1.34,AU,1612064849
22,orsha,57.643,32.466,-4.89,97,99,2.96,RU,1612064964
23,torres novas,-54.8,-68.3,8.0,71,20,3.09,AR,1612064714
24,carnarvon,22.0752,-159.319,24.0,78,1,6.69,US,1612064860
25,carlyle,42.6001,-73.9662,-11.67,56,13,1.91,US,1612064855
26,moyale,33.194,-82.5271,8.0,76,1,2.57,US,1612064965
27,sept-iles,-34.0033,24.7314,14.44,92,0,2.19,ZA,1612064861
28,lompoc,22.1461,-80.4356,19.0,82,33,3.6,CU,1612064965
29,redlands,10.9995,122.6711,27.53,74,88,7.53,PH,1612064965
30,nhulunbuy,52.6482,19.0678,-5.56,95,0,0.89,PL,1612064965
31,naryan-mar,71.6872,128.8694,-32.82,86,100,1.91,RU,1612064580
32,sao filipe,40.5982,-124.1573,11.67,81,90,6.69,US,1612064875
33,qasigiannguit,-21.2,-175.2,25.0,94,90,8.23,TO,1612064848
34,alugan,-20.5167,57.5167,27.0,78,40,4.12,MU,1612064965
35,broome,51.3223,42.7678,1.11,94,100,0.89,RU,1612064966
36,chumikan,65.282,-126.8329,-32.0,75,75,1.03,CA,1612064851
37,pringsewu,-8.4667,118.7167,31.06,60,100,2.91,ID,1612064966
38,san vicente,-33.918,25.5701,15.0,88,0,1.54,ZA,1612064850
39,ossora,62.2266,-6.589,0.0,74,75,7.72,FO,1612064966
40,puerto madero,73.5069,80.5464,-36.27,80,0,2.33,RU,1612064871
41,sorland,-33.6971,-53.4616,20.26,90,100,7.02,UY,1612064966
42,mayumba,45.3167,55.2,0.11,97,100,4.92,KZ,1612064966
43,albany,29.9697,40.2064,5.0,60,0,2.57,SA,1612064966
44,raga,72.7868,-56.1549,-22.69,83,84,1.88,GL,1612064852
45,dalvik,-0.7393,-90.3518,25.56,91,38,2.68,EC,1612064848
46,khorixas,-33.5906,26.891,16.67,93,5,1.08,ZA,1612064855
47,praia da vitoria,77.484,-69.3632,-20.66,80,99,0.88,GL,1612064850
48,srednebelaya,-8.9266,125.4092,18.78,99,100,3.46,TL,1612064571
49,kudat,-33.0117,17.9442,17.46,93,7,1.89,ZA,1612064848
50,tsiroanomandidy,-34.5322,20.0403,15.56,93,0,0.45,ZA,1612064850
51,seoul,-46.1927,168.8643,22.96,37,98,1.54,NZ,1612064856
52,port alfred,-13.7,-76.2167,21.11,77,0,5.14,PE,1612064849
53,coos bay,49.7834,-74.8492,-21.0,84,90,2.06,CA,1612064967
54,nabire,-17.0,145.4333,32.22,62,40,7.2,AU,1612064967
55,merauke,60.3725,93.0408,-34.08,83,0,0.17,RU,1612064967
56,dashitou,-23.1203,-134.9692,26.29,74,2,4.89,PF,1612064849
57,davila,60.1432,-45.2371,-2.42,90,100,4.53,GL,1612064879
58,chapais,28.3667,129.4833,16.0,59,75,4.63,JP,1612064762
59,ostersund,42.8,93.45,-1.73,78,0,2.84,CN,1612064967
60,warwick,36.6167,101.7667,-4.66,65,0,1.65,CN,1612064754
61,krasnoselkup,64.8945,-23.7142,-5.22,88,24,6.61,IS,1612064853
62,goksun,62.5833,6.1333,0.0,93,90,3.6,NO,1612064968
63,vestmannaeyjar,70.8578,29.0864,-3.91,95,100,8.36,NO,1612064968
64,nalut,-34.4187,19.2345,15.56,92,1,4.21,ZA,1612064600
65,boddam,-46.6,168.3333,14.64,74,100,4.77,NZ,1612064850
66,kampot,-23.7,133.8833,36.67,18,66,5.66,AU,1612064868
67,chacabuco,68.8193,-51.1922,-13.0,66,90,1.54,GL,1612064968
68,padang,18.8003,110.3967,23.06,69,49,5.73,CN,1612064968
69,nuevo ideal,-0.1303,-67.0892,23.55,96,76,0.93,BR,1612064968
70,mungwi,-20.4081,57.7,27.0,78,40,4.12,MU,1612064856
71,luderitz,58.3106,112.8986,-33.68,74,100,2.2,RU,1612064968
72,ribeira grande,53.9353,139.9242,-20.62,86,100,3.09,RU,1612064968
73,itoman,-8.1614,-70.7656,23.06,97,100,1.03,BR,1612064968
74,rabaul,29.4241,-98.4936,16.11,72,1,3.09,US,1612064739
75,ternate,35.1428,-120.6413,9.0,87,1,1.54,US,1612064815
76,jackson,63.05,179.3167,-14.8,94,100,13.95,RU,1612064969
77,wanning,-3.8367,-62.0569,23.33,98,82,0.79,BR,1612064969
78,el dorado,71.9167,114.0833,-36.06,83,100,4.02,RU,1612064866
79,mindelo,53.6667,124.8,-29.65,83,93,0.53,RU,1612064969
80,flinders,14.8961,-24.4956,23.05,63,84,5.19,CV,1612064969
81,butaritari,54.7183,135.315,-24.44,79,0,12.39,RU,1612064969
82,college,50.7833,121.5167,-23.14,82,93,0.34,CN,1612064969
83,mataura,-21.2078,-159.775,27.0,83,90,2.57,CK,1612064853
84,aklavik,68.5333,146.4167,-34.55,85,100,1.56,RU,1612064969
85,sobolevo,-38.7196,-62.2724,14.5,62,23,5.18,AR,1612064969
86,thompson,65.6145,-37.6368,-8.0,45,40,2.06,GL,1612064856
87,saint anthony,-20.3167,118.5667,33.0,52,75,5.66,AU,1612064970
88,inverell,43.5206,68.5094,6.7,61,100,1.59,KZ,1612064970
89,tromso,-33.65,115.3333,30.15,28,0,2.0,AU,1612064563
90,vaini,69.7008,170.3133,-36.47,84,4,1.62,RU,1612064577
91,katangli,-9.8,-139.0333,26.18,76,88,7.69,PF,1612064855
92,kalush,-42.7167,170.9667,17.43,62,0,4.04,NZ,1612064750
93,sterling,61.5556,-6.8111,0.0,74,75,7.72,FO,1612064970
94,kashi,35.035,10.9081,17.0,45,0,2.57,TN,1612064970
95,geraldton,33.0833,-16.3333,13.0,94,0,3.09,PT,1612064970
96,portland,-3.8004,102.2655,24.33,89,100,1.21,ID,1612064863
97,nurota,51.1801,71.446,-11.0,79,0,3.0,KZ,1612064890
98,magalia,-21.3585,55.7679,29.0,54,0,2.57,RE,1612064860
99,east london,46.5389,138.3297,-12.68,78,12,3.48,RU,1612064971
100,nizwa,5.8808,-10.0467,24.0,94,40,2.09,LR,1612064971
101,uray,11.8485,-86.4384,26.0,73,20,4.12,NI,1612064971
102,vanavara,-2.5744,150.7967,28.54,73,99,5.95,PG,1612064606
103,innisfail,-22.6667,167.4833,24.75,79,88,9.23,NC,1612064849
104,ceres,41.8666,-103.6672,2.78,75,1,4.63,US,1612064971
105,tasiilaq,68.3065,-53.4641,-15.58,95,100,2.13,GL,1612064971
106,airai,43.3067,128.5114,-11.2,93,100,2.36,CN,1612064971
107,ginda,38.021,36.4973,1.0,100,75,4.63,TR,1612064971
108,paamiut,-3.7703,-70.3831,25.0,100,40,1.03,CO,1612064971
109,iquique,37.1376,50.288,9.55,55,0,2.68,IR,1612064971
110,graaff-reinet,5.4112,100.3354,29.0,54,20,4.12,MY,1612064710
111,imeni poliny osipenko,52.25,6.15,-3.33,95,0,1.79,NL,1612064972
112,bredasdorp,35.7333,140.8333,12.22,32,20,7.72,JP,1612064972
113,parabel,34.6667,138.95,12.0,50,20,3.6,JP,1612064858
114,muzhi,56.55,37.8833,-6.37,98,100,1.95,RU,1612064972
115,asfi,68.2191,-135.0107,-33.0,75,100,0.51,CA,1612064874
116,gorontalo,60.3964,-1.353,1.0,93,75,4.72,GB,1612064972
117,bogorodskoye,-19.3911,-40.0722,21.75,94,6,0.68,BR,1612064972
118,hithadhoo,-2.99,-65.1083,23.11,97,24,1.03,BR,1612064972
119,kaitangata,-12.0432,-77.0282,23.33,78,0,5.66,PE,1612064839
120,turukhansk,19.35,83.7833,27.24,41,44,0.43,IN,1612064972
121,kasuga,56.4234,58.5328,-8.86,97,92,2.56,RU,1612064972
122,taltal,65.1073,57.0459,-17.73,92,100,4.81,RU,1612064973
123,naze,-25.2986,152.8535,31.67,42,0,7.72,AU,1612064973
124,half moon bay,-20.3297,-40.2925,26.0,78,20,3.09,BR,1612064878
125,mnogovershinnyy,-9.0122,-35.2225,25.32,82,100,3.19,BR,1612064973
126,quesnel,-6.8283,-35.7583,22.0,88,0,2.06,BR,1612064973
127,usinsk,42.097,-79.2353,-7.22,79,90,3.6,US,1612064862
128,shimoda,19.7297,-155.09,26.0,57,40,3.09,US,1612064840
129,bure,-19.55,169.2667,27.0,83,90,2.57,VU,1612064852
130,dalnerechensk,-35.5667,138.6167,20.56,63,0,0.89,AU,1612064973
131,navalmoral de la mata,3.0707,172.7902,27.51,79,52,8.16,KI,1612064570
132,san cristobal,65.7,82.4667,-31.04,83,100,6.95,RU,1612064974
133,yabrud,27.4375,115.4976,18.67,44,79,1.08,CN,1612064974
134,husavik,39.7767,30.5206,1.0,100,40,2.06,TR,1612064974
135,torbay,-35.1667,173.1667,20.34,58,18,1.79,NZ,1612064880
136,atasu,63.7506,-68.5145,-22.78,70,1,8.23,CA,1612064871
137,dingle,27.3833,75.9667,15.0,38,0,1.03,IN,1612064974
138,presidencia roque saenz pena,13.2167,-59.5167,26.0,73,75,9.26,BB,1612064855
139,clyde river,-22.9661,-42.0278,24.71,83,25,11.47,BR,1612064867
140,vostok,23.8333,73.7167,17.49,27,0,3.72,IN,1612064974
141,san antonio,54.3161,-130.3201,5.0,75,75,4.12,CA,1612064712
142,castro,37.3164,27.7839,5.0,100,16,1.54,TR,1612064974
143,chapleau,-26.6481,15.1594,17.36,68,0,7.39,NA,1612064967
144,nantucket,6.7166,80.0619,27.0,78,20,4.12,LK,1612064974
145,skibbereen,52.3342,-6.4575,5.56,96,79,4.02,IE,1612064975
146,hobyo,7.7669,-72.225,18.04,72,94,0.65,VE,1612064693
147,qaanaaq,60.34,102.2797,-36.1,82,25,1.53,RU,1612064975
148,kurilsk,-33.8667,121.9,28.0,30,0,3.6,AU,1612064861
149,vytegra,42.7808,20.4875,4.0,75,40,3.09,XK,1612064975
150,estelle,16.5167,-90.1667,19.09,96,100,0.66,GT,1612064975
151,bambanglipuro,69.4541,-133.0374,-37.0,67,20,0.48,CA,1612064864
152,assisi,69.2167,-51.1,-13.0,66,90,1.54,GL,1612064975
153,cananea,58.6978,81.4825,-29.97,85,100,4.43,RU,1612064975
154,waspan,17.0818,122.4157,22.18,81,100,5.58,PH,1612064975
155,port hedland,26.5881,127.9761,20.0,52,75,5.66,JP,1612064975
156,hualmay,69.4865,88.3972,-35.0,71,0,3.33,RU,1612064863
157,aksu,-33.0153,27.9116,19.0,100,75,2.06,ZA,1612064861
158,nemuro,46.6806,113.2792,-12.5,95,100,0.82,MN,1612064976
159,harrismith,0.0847,-76.8828,24.0,94,20,0.51,EC,1612064976
160,saskylakh,47.9147,123.5031,-19.48,88,100,2.05,CN,1612064976
161,damoh,-16.3494,-53.7583,22.44,88,97,1.7,BR,1612064976
162,colares,48.6814,71.6433,-6.19,89,100,4.5,KZ,1612064976
163,iberia,16.8901,-24.9804,22.0,73,75,8.23,CV,1612064976
164,lodwar,41.3712,-73.414,-8.33,72,1,2.96,US,1612064858
165,abnub,5.5,120.8833,27.67,75,100,4.88,PH,1612064976
166,hervey bay,70.3705,31.1107,-3.41,95,100,8.51,NO,1612064880
167,plettenberg bay,39.1834,-84.5333,1.0,86,90,1.54,US,1612064923
168,sitka,54.4299,31.8996,-7.73,97,100,2.69,RU,1612064976
169,acarau,11.2833,-15.8333,25.86,60,54,4.9,GW,1612064869
170,scottsbluff,20.8947,-156.47,24.0,64,40,10.29,US,1612064977
171,cabo san lucas,32.6667,-17.1,14.44,75,11,1.79,PT,1612064851
172,jamame,-21.7111,-46.2464,18.63,88,89,0.84,BR,1612064977
173,kajaani,-12.2333,136.7667,32.0,62,75,5.14,AU,1612064977
174,georgetown,31.4229,-103.4932,11.0,17,1,4.63,US,1612064977
175,egvekinot,11.7751,-72.4445,24.86,75,75,6.67,CO,1612064977
176,guiratinga,-1.3959,120.7524,30.04,59,100,2.8,ID,1612064977
177,muroto,-12.3833,16.9333,14.22,93,100,2.36,AO,1612064977
178,ionia,55.7435,-97.8558,-10.0,92,90,1.54,CA,1612064568
179,goma,-38.0023,-57.5575,16.11,55,0,7.72,AR,1612064659
180,erzin,-0.6,73.0833,27.68,79,42,6.28,MV,1612064600
181,nouadhibou,28.017,-97.5169,22.0,94,1,5.14,US,1612064848
182,pismo beach,63.8424,-22.4338,-5.0,63,75,3.09,IS,1612064948
183,rybachiy,-5.3582,104.9744,27.0,82,78,1.81,ID,1612064868
184,khatanga,38.5167,-28.7,17.22,94,99,8.7,PT,1612064585
185,adre,27.2696,31.1511,6.0,75,0,2.06,EG,1612064978
186,vila velha,25.5198,90.2201,19.89,29,0,1.3,IN,1612064882
187,arara,11.0517,124.0055,28.13,68,86,5.8,PH,1612064978
188,todos santos,-45.5752,-72.0662,11.0,66,0,0.47,CL,1612064859
189,coihaique,66.3167,-179.1667,-29.01,84,100,5.57,RU,1612064978
190,berlevag,-13.8483,136.4192,32.0,70,5,3.09,AU,1612064978
191,jamestown,-13.8833,167.55,27.57,77,100,5.23,VU,1612064978
192,latung,52.6334,-114.2353,-12.0,85,0,1.03,CA,1612064978
193,taldan,8.0086,-62.3989,23.33,97,35,1.34,VE,1612064979
194,lebu,11.6667,92.75,28.57,67,17,5.5,IN,1612064857
195,broken hill,47.0667,51.8667,-5.0,100,100,4.0,KZ,1612064979
196,ixtapa,-46.2817,169.8464,17.78,74,100,3.13,NZ,1612064850
197,teresopolis,57.1576,60.5698,-13.0,92,40,2.0,RU,1612064979
198,gannan,10.7,37.0667,12.76,67,13,1.84,ET,1612064979
199,arman,34.2257,-77.9447,7.22,49,90,1.54,US,1612064849
200,takoradi,50.6594,128.0106,-30.0,69,0,1.0,RU,1612064979
201,filadelfia,36.8648,70.8342,3.81,61,100,3.39,AF,1612064979
202,esperance,-24.7911,-50.0119,17.92,95,100,1.93,BR,1612064851
203,istok,6.1241,81.1185,28.0,83,20,5.14,LK,1612064880
204,mama,51.8625,20.8676,-5.0,93,75,3.6,PL,1612064979
205,mitu,22.6783,-3.9836,16.09,30,1,1.69,ML,1612064598
206,cidreira,35.4887,-82.9887,0.0,39,85,0.45,US,1612064980
207,yellowknife,-2.0833,101.3833,21.93,81,100,0.39,ID,1612064980
208,sokoni,22.2855,114.1577,20.0,57,0,0.45,HK,1612064587
209,changji,33.2833,134.15,13.0,38,20,6.69,JP,1612064980
210,mulchen,1.1983,-70.1733,22.72,94,76,0.41,CO,1612064980
211,babanka,-31.732,-60.5238,18.89,88,90,4.92,AR,1612064980
212,tabou,2.8197,-60.6733,26.0,73,75,4.12,BR,1612064980
213,ascension,23.3333,87.2167,14.0,77,0,1.03,IN,1612064980
214,kedrovoye,29.9502,-91.7507,19.0,94,90,5.14,US,1612064980
215,alofi,45.2333,147.8833,-7.04,95,100,10.22,RU,1612064980
216,milas,71.2906,-156.7887,-27.0,69,90,2.57,US,1612064828
217,huambo,37.1041,-113.5841,6.0,70,1,1.54,US,1612064858
218,upernavik,38.8876,-76.5119,0.0,59,1,1.75,US,1612064981
219,ponta do sol,-10.2621,29.9271,16.25,89,100,0.93,ZM,1612064981
220,qui nhon,48.6758,24.4138,-6.38,92,73,1.34,UA,1612064981
221,sola,64.8569,-147.8028,-20.0,77,90,0.33,US,1612064981
222,pacific grove,42.9873,-85.0711,-3.0,59,90,5.14,US,1612064981
223,abeche,41.7001,-71.4162,-8.33,53,1,1.54,US,1612064756
224,birakan,39.4811,-8.5395,13.33,99,96,2.68,PT,1612064981
225,dicabisagan,16.1525,36.2032,15.58,93,0,3.23,SD,1612064981
226,ewo,-5.041,18.8162,21.21,96,100,0.88,CD,1612064981
227,sicuani,-45.8742,170.5036,15.0,80,76,8.94,NZ,1612064981
228,wexford,32.4799,-86.3619,14.0,51,90,5.66,US,1612064981
229,salinopolis,22.9333,57.5333,20.12,34,0,0.99,OM,1612064958
230,malakal,24.4667,54.3667,20.0,88,0,2.06,AE,1612064931
231,chara,67.4667,78.7,-31.37,86,100,7.99,RU,1612064982
232,waynesville,56.6956,84.6467,-26.67,72,64,3.13,RU,1612064982
233,tigre,69.3833,178.4167,-32.66,82,3,2.32,RU,1612064859
234,new norfolk,42.7762,-9.0603,12.78,92,100,1.34,ES,1612064982
235,ancud,40.5308,-112.2983,1.67,80,1,3.6,US,1612064982
236,garoua,-2.6386,30.4678,12.98,97,87,0.6,TZ,1612064982
237,kumba,78.2186,15.6401,-21.0,59,20,8.75,SJ,1612064855
238,alekseyevsk,30.95,-110.3,6.11,50,0,1.34,MX,1612064982
239,puerto narino,55.0667,-117.2859,-10.0,73,9,0.51,CA,1612064982
240,faanui,57.8406,108.3492,-35.82,79,100,1.63,RU,1612064982
241,vigrestad,69.4058,86.1778,-37.37,77,0,3.45,RU,1612064983
242,kenora,-8.4667,140.3333,28.72,78,98,7.45,ID,1612064983
243,pokosnoye,-11.9472,-75.2829,10.1,73,100,0.76,PE,1612064983
244,wagar,33.9674,36.6574,8.0,71,40,5.14,SY,1612064983
245,challakere,-4.1967,152.1721,29.27,65,100,5.72,PG,1612064983
246,tuatapere,-2.0226,147.2712,28.23,81,100,5.12,PG,1612064983
247,longyearbyen,-16.8065,26.9531,18.31,93,100,1.3,ZM,1612064983
248,baruun-urt,20.5083,-86.9458,22.78,81,88,0.89,MX,1612064772
249,tvoroyri,28.6585,-17.9182,17.0,88,75,5.66,ES,1612064983
250,allende,71.9667,102.5,-44.21,78,43,0.44,RU,1612064561
251,omboue,67.667,12.6934,-0.83,88,40,2.84,NO,1612064983
252,manuk mangkaw,17.6,80.3333,26.25,61,65,1.26,IN,1612064983
253,manokwari,68.414,15.9951,-7.78,85,100,1.54,NO,1612064983
254,fort-shevchenko,-16.4833,-151.75,27.88,68,77,3.29,PF,1612064853
255,port lincoln,-20.2208,-70.1431,21.0,68,0,3.6,CL,1612064638
256,shingu,-29.9533,-71.3436,18.0,94,90,0.94,CL,1612064858
257,hobart,51.3813,1.3862,4.44,59,28,1.79,GB,1612064870
258,klaksvik,35.7698,-91.641,14.0,94,90,6.17,US,1612064984
259,iqaluit,43.2686,-7.5406,9.44,100,100,3.13,ES,1612064984
260,markova,41.0167,70.1436,7.2,56,100,4.4,UZ,1612064984
261,dunedin,34.8014,-106.5436,4.0,48,1,3.6,US,1612064984
262,tautira,36.9559,36.2,8.0,100,75,10.29,TR,1612064984
263,challapata,71.0357,27.8492,-4.16,96,100,8.17,NO,1612064851
264,nome,-3.1431,-58.4442,23.76,91,25,0.05,BR,1612064984
265,bambous virieux,-25.4,-70.4833,18.33,76,6,1.45,CL,1612064420
266,mareeba,14.7419,-83.9717,20.83,94,28,1.05,NI,1612064984
267,teknaf,64.3833,-173.3,-23.03,84,100,7.69,RU,1612064848
268,ushuaia,48.7073,44.7449,-2.0,100,90,7.0,RU,1612064985
269,yulara,41.7597,86.1469,-3.78,80,0,2.81,CN,1612064878
270,samarai,18.4667,-102.4167,16.99,89,9,1.54,MX,1612064985
271,victoria,-19.0595,-169.9187,27.0,83,100,4.12,NU,1612064861
272,brae,6.8837,116.8477,28.0,78,40,5.14,MY,1612064985
273,buchanan,50.6789,156.125,-4.19,95,100,15.85,RU,1612064866
274,vestmanna,66.0449,-17.3389,-9.0,67,90,1.54,IS,1612064861
275,linhares,8.5667,0.9833,24.0,27,17,1.47,TG,1612064787
276,fethiye,37.7167,-25.4333,17.22,88,75,4.63,PT,1612064757
277,wilmington,18.7369,7.3853,14.29,29,9,2.52,NE,1612064985
278,biltine,-7.95,110.2833,30.38,62,100,2.3,ID,1612064985
279,cienfuegos,57.6409,18.296,-1.67,80,90,6.69,SE,1612064986
280,mar del plata,-0.7193,8.7815,25.05,80,100,2.71,GA,1612064986
281,santa maria,-11.0964,-77.6139,21.48,77,97,3.07,PE,1612064986
282,puerto escondido,51.55,-9.2667,5.0,100,75,5.66,IE,1612064986
283,marshfield,27.2574,33.8129,10.0,57,0,3.18,EG,1612064986
284,kahului,59.7,150.1667,-23.26,77,68,7.96,RU,1612064986
285,pathein,49.0119,24.3731,-4.09,95,98,2.3,UA,1612064958
286,boa vista,43.3,52.8,2.11,89,69,4.13,KZ,1612064986
287,visnes,66.5,25.7167,-11.0,85,100,4.12,FI,1612064986
288,san jeronimo,59.2353,163.0719,-18.65,91,100,9.94,RU,1612064986
289,caravelas,67.6713,53.087,-17.47,92,100,4.74,RU,1612064853
290,shelopugino,18.2418,104.2122,27.78,45,0,0.02,LA,1612064987
291,kangaatsiaq,-4.3319,-40.1567,24.06,75,93,1.41,BR,1612064987
292,puerto ayora,-12.7761,15.7392,13.52,95,100,0.58,AO,1612064987
293,rudsar,24.8875,-105.0728,12.81,47,3,2.74,MX,1612064987
294,ibra,26.7292,33.9365,10.0,57,0,1.91,EG,1612064987
295,cherskiy,0.5412,123.0595,32.22,47,100,1.03,ID,1612064987
296,luwingu,-30.1811,-50.2056,23.94,89,97,3.3,BR,1612064853
297,kimbe,26.5921,12.7805,12.23,41,0,3.87,LY,1612064987
298,pochutla,-34.6417,-60.4739,14.44,85,73,1.34,AR,1612064738
299,hun,9.9658,98.6348,29.0,70,40,2.06,TH,1612064987
300,abu samrah,47.674,-122.1215,7.78,92,100,3.76,US,1612064950
301,bandarbeyla,-29.6842,-53.8069,20.44,94,99,3.66,BR,1612064988
302,pevek,-18.9,-66.7667,9.67,44,80,2.46,BO,1612064979
303,yaan,30.2169,-90.9001,20.0,73,90,6.17,US,1612064988
304,saldanha,16.8634,-99.8901,26.0,89,1,1.03,MX,1612064721
305,hasaki,35.3029,37.1841,9.06,89,98,7.18,SY,1612064988
306,te anau,58.8053,-122.7002,-26.0,76,40,1.03,CA,1612064852
307,albury,-17.8136,-50.5969,22.42,79,95,1.99,BR,1612064927
308,marawi,-6.8844,112.2051,28.76,76,88,4.46,ID,1612064988
309,bronkhorstspruit,51.1,66.3167,-8.69,93,100,1.85,KZ,1612064988
310,port-gentil,-33.1416,-59.3097,17.4,80,100,6.45,AR,1612064988
311,namibe,43.3665,-124.2179,9.44,100,90,2.35,US,1612064988
312,shelburne,38.9342,100.4517,-0.97,64,0,1.37,CN,1612064988
313,cheremisinovo,66.8333,70.8333,-26.73,88,100,7.72,RU,1612064877
314,chuy,53.0452,158.6483,-1.0,47,100,8.0,RU,1612064638
315,sungaipenuh,-25.2406,130.9889,36.0,19,40,7.72,AU,1612064989
316,dudinka,53.7,53.6667,-7.24,97,99,3.43,RU,1612064989
317,kamenka,57.0531,-135.33,4.0,56,20,2.06,US,1612064569
318,demyansk,-8.11,-42.9444,20.41,93,100,0.63,BR,1612064989
319,conde,-38.3333,143.5833,19.44,68,5,2.24,AU,1612064989
320,redmond,51.7102,143.2326,-17.02,89,100,5.9,RU,1612064989
321,bima,26.1247,127.6694,20.0,52,40,5.66,JP,1612064869
322,ilulissat,5.8933,95.3214,27.3,77,43,9.36,ID,1612064989
323,isangel,39.0062,-77.4286,0.0,51,90,2.06,US,1612064989
324,korem,-9.6658,-35.7353,24.0,94,40,1.03,BR,1612064953
325,mehamn,39.9523,-75.1638,-1.11,54,40,1.43,US,1612064945
326,arti,-17.7333,-149.15,25.0,78,75,6.17,PF,1612064879
327,mahebourg,7.0419,134.2556,30.0,66,75,5.66,PW,1612064990
328,ban nahin,39.8916,-5.5406,7.69,77,57,6.01,ES,1612064990
329,taoudenni,27.8964,102.2634,10.59,53,79,1.11,CN,1612064990
330,sumbe,27.9769,-114.0611,15.41,69,96,5.5,MX,1612064878
331,bani,44.5086,50.263,2.49,82,68,4.26,KZ,1612064990
332,vardo,65.5833,-171.0,-25.04,85,68,3.88,RU,1612064856
333,rikitea,-21.6403,-41.0511,24.83,83,7,8.71,BR,1612064990
334,kodiak,17.0151,54.0924,19.0,68,75,1.03,OM,1612064990
335,xichang,-11.2061,13.8437,24.37,79,100,0.82,AO,1612064990
336,acapulco,13.7667,109.2333,24.33,78,99,5.76,VN,1612064990
337,lavrentiya,-20.3428,57.7575,27.22,78,40,4.12,MU,1612064854
338,hambantota,-28.7667,114.6,40.0,15,0,7.72,AU,1612064860
339,salalah,18.4726,120.5763,26.0,47,75,5.14,PH,1612064991
340,codrington,8.0313,-72.2605,19.24,72,60,1.4,VE,1612064991
341,hilo,16.2833,95.6833,30.86,28,4,1.56,MM,1612064992
342,chokurdakh,39.7432,98.5174,-1.91,74,0,1.25,CN,1612064992
343,qaqortoq,54.5153,30.4053,-8.66,97,98,3.49,BY,1612064992
344,hamilton,12.3536,-4.7761,19.77,22,0,3.85,ML,1612064992
345,playas,-46.1333,167.6833,17.95,54,100,0.89,NZ,1612064874
346,tiksi,-41.4122,175.5153,21.11,55,0,3.6,NZ,1612064993
347,rovaniemi,44.0167,87.3167,-16.0,85,75,1.0,CN,1612064993
348,camacha,-37.6167,-73.65,13.15,87,6,5.65,CL,1612064875
349,poso,-20.3667,14.9667,19.63,59,100,1.51,NA,1612064993
350,barrow,60.7167,-46.0333,4.0,30,75,11.83,GL,1612064993
351,santa quiteria,-38.5473,-58.7368,14.44,69,57,1.79,AR,1612064702
352,avera,16.7833,94.7333,30.8,29,61,4.28,MM,1612064994
353,kodinar,-29.7833,151.1167,31.11,43,37,4.02,AU,1612064994
354,ust-nera,-0.6136,-47.3561,25.88,86,100,4.87,BR,1612064994
355,port blair,56.9064,118.2631,-31.39,81,100,0.86,RU,1612064994
356,kapaa,-18.933,47.4354,18.0,88,75,2.06,MG,1612064995
357,avarua,-36.0833,146.9167,32.22,25,0,3.6,AU,1612064938
358,astana,61.0064,36.4481,-4.95,97,100,3.61,RU,1612064995
359,zhangye,33.0333,130.05,11.0,62,20,2.06,JP,1612064995
360,bengkulu,4.8517,31.5825,22.01,25,0,1.78,SS,1612064995
361,guerrero negro,-37.7167,-72.2333,13.72,95,24,0.98,CL,1612064995
362,george town,47.6666,-52.7314,-1.67,100,90,5.66,CA,1612064855
363,bahia blanca,-17.5333,146.0333,27.62,85,90,4.76,AU,1612064995
364,portsoy,49.8167,-94.4337,-5.0,93,90,2.06,CA,1612064995
365,uyuni,42.2068,-121.7372,3.0,70,90,3.09,US,1612064995
366,provideniya,4.8845,-1.7554,25.78,90,49,3.17,GH,1612064855
367,sao joao da barra,20.931,-17.0347,19.0,59,0,8.23,MR,1612064996
368,canto do buriti,42.4165,-122.8345,11.0,46,90,7.72,US,1612064996
369,camopi,32.2994,-9.2372,15.11,86,79,4.11,MA,1612064996
370,abu dhabi,3.1655,-52.3158,22.33,98,100,0.96,GF,1612064996
371,lorengau,-45.4167,167.7167,18.18,48,80,3.22,NZ,1612064996
372,beliator,45.0205,-93.218,-0.56,86,90,3.6,US,1612064605
373,arlit,43.0691,12.6165,10.0,93,40,3.09,IT,1612064996
374,parana,38.7666,-120.5177,3.89,91,70,2.76,US,1612064996
375,saint-augustin,45.9339,133.7225,-20.6,88,48,2.12,RU,1612064996
376,severo-yeniseyskiy,-14.2694,-71.2261,9.28,74,100,1.04,PE,1612064996
377,dakar,-10.1732,31.3694,15.7,94,81,1.09,ZM,1612064996
378,margate,50.2334,-63.5986,-4.0,74,90,5.14,CA,1612064996
379,campestre,-20.4597,-66.825,11.19,40,24,3.43,BO,1612064997
380,uzhur,-18.7667,46.0333,20.53,87,0,0.91,MG,1612064997
381,sevnica,29.1268,15.9477,13.47,38,0,2.65,LY,1612064997
382,naples park,40.5614,65.6886,8.0,57,96,4.12,UZ,1612064997
383,cockburn town,51.6514,117.5599,-26.04,83,86,1.32,RU,1612064997
384,santa helena de goias,-7.2597,-34.9075,25.0,88,0,2.06,BR,1612064997
385,kloulklubed,-10.6167,150.6667,29.98,71,100,7.85,PG,1612064854
386,wloclawek,22.8909,-109.9124,19.0,82,20,1.03,MX,1612064613
387,jabinyanah,39.4547,75.9797,-4.0,58,20,4.0,CN,1612064997
388,talnakh,41.9908,122.8253,-2.0,46,75,3.0,CN,1612064997
389,terre haute,46.43,28.2083,-1.06,95,99,3.8,RO,1612064998
390,san rafael del sur,61.994,-49.6678,-3.34,90,38,6.62,GL,1612064998
391,colac,30.6945,78.4932,11.0,29,0,1.58,IN,1612064998
392,roald,34.6391,-120.4579,9.0,87,1,1.34,US,1612064998
393,waipawa,-43.3002,-65.1023,16.03,59,38,5.27,AR,1612064878
394,aliwal north,60.9167,-46.05,4.0,30,75,11.83,GL,1612064851
395,moryakovskiy zaton,9.4942,50.8122,23.19,70,96,7.15,SO,1612064998
396,dali,2.0371,45.3438,23.96,82,15,6.92,SO,1612064998
397,zhanaozen,41.1231,80.2644,-2.37,72,46,1.33,CN,1612064998
398,rimbey,45.41,79.9186,-0.32,74,100,1.26,KZ,1612064998
399,atuona,22.6906,58.5334,19.58,32,0,0.93,OM,1612064830
400,berdigestyakh,12.2188,125.4808,26.97,74,97,8.46,PH,1612064999
401,lima,65.3667,64.6667,-26.26,89,100,1.39,RU,1612064999
402,antofagasta,60.1247,64.7758,-11.98,96,100,1.87,RU,1612064858
403,horana,14.3167,76.65,25.3,32,5,4.6,IN,1612064999
404,millbrook,45.0503,136.6092,-14.83,80,0,5.71,RU,1612064999
405,codajas,-17.7125,-39.2481,23.79,87,8,2.03,BR,1612064590
406,manzhouli,13.4586,14.7147,21.0,35,0,8.4,TD,1612064999
407,hami,-22.8167,47.8333,26.15,83,33,1.97,MG,1612064999
408,vung tau,70.9821,25.9704,-2.77,96,100,9.6,NO,1612064999
409,kirakira,52.9999,-122.5029,-6.0,93,1,1.75,CA,1612064999
410,sotouboua,15.85,-97.0667,24.61,62,2,1.07,MX,1612064999
411,jibuti,58.5667,5.7,-1.67,93,75,1.03,NO,1612065000
412,abdulino,34.0556,-117.1825,13.0,54,1,2.06,US,1612065000
413,sayaxche,3.5167,39.0584,17.96,37,0,3.66,KE,1612065000
414,balykshi,37.3482,59.6143,10.14,48,100,3.96,TM,1612065000
415,tuktoyaktuk,55.5258,101.0536,-35.39,80,0,1.71,RU,1612065000
416,juba,28.7167,-111.5833,13.89,76,26,1.79,MX,1612065000
417,bereda,-34.5833,150.8552,20.56,96,97,0.45,AU,1612065000
418,vao,-22.4122,-42.9656,27.0,69,0,2.06,BR,1612065000
419,grojec,23.8333,79.45,16.87,27,0,1.16,IN,1612065000
420,altamont,69.3,139.9,-32.04,88,99,1.01,RU,1612065000
421,bol,-39.0333,-67.5833,18.0,63,40,1.03,AR,1612064875
422,skjervoy,2.3284,37.9899,15.94,60,16,5.52,KE,1612065001
423,muros,41.2835,-70.0995,-6.67,49,1,3.6,US,1612064962
424,grindavik,21.4612,-71.1419,23.0,56,20,5.14,TC,1612065001
425,providencia,44.6689,-90.1718,-2.0,74,90,8.23,US,1612065001
426,ust-tarka,45.5234,-122.6762,8.33,76,90,4.63,US,1612064622
427,marsabit,-34.7333,135.8667,20.81,58,73,4.87,AU,1612065001
428,beidao,4.8,119.85,26.4,78,100,2.92,PH,1612065001
429,upata,-23.65,-70.4,19.0,82,20,5.66,CL,1612064543
430,rawson,18.7333,-103.6833,23.0,88,0,1.03,MX,1612064879
431,yongchang,55.5672,75.705,-16.55,94,100,5.24,RU,1612065002
432,gualeguay,62.0989,126.6992,-39.46,79,95,1.44,RU,1612065002
433,severo-kurilsk,38.7333,-27.0667,18.0,94,75,6.1,PT,1612064863
434,terney,38.7992,-9.4469,15.56,83,90,5.06,PT,1612065002
435,genhe,19.8856,102.1347,20.0,88,75,0.76,LA,1612065002
436,cape town,-2.8856,-40.12,25.68,86,100,4.64,BR,1612065002
437,bonanza,5.3505,48.5268,24.58,70,71,7.15,SO,1612065002
438,tazovskiy,14.5333,20.9167,19.32,23,4,5.53,TD,1612065002
439,leningradskiy,36.6177,-121.9166,11.11,76,20,2.43,US,1612064711
440,maceio,29.85,80.5333,14.71,23,0,1.36,IN,1612065003
441,yar-sale,49.1541,23.0297,-5.0,85,100,0.53,UA,1612065003
442,ranong,39.2342,106.3439,-2.15,72,0,14.13,CN,1612065003
443,tarauaca,65.9939,57.5281,-18.09,92,100,4.92,RU,1612065003
444,mount gambier,-10.4544,161.9205,26.74,86,99,6.12,SB,1612065003
445,punta arenas,64.5011,-165.4064,-26.0,84,1,1.48,US,1612065003
446,antsla,36.6217,29.1164,6.0,100,0,2.06,TR,1612065003
447,yurimaguas,-0.8725,14.8206,21.29,89,100,2.08,CG,1612065003
448,beringovskiy,-34.0527,23.3716,18.34,75,0,2.23,ZA,1612065004
449,turka,-0.8667,134.0833,26.31,83,100,6.85,ID,1612065004
450,visby,30.4833,-115.95,13.66,77,0,2.14,MX,1612065004
451,fortuna,64.8378,-147.7164,-20.0,77,90,0.33,US,1612064799
452,san patricio,-17.9333,19.7667,19.48,96,100,2.1,NA,1612065004
453,itacoatiara,62.1564,-7.1664,0.0,74,75,7.72,FO,1612065004
454,ulaanbaatar,57.6814,-2.6896,0.0,93,75,2.57,GB,1612065005
455,zyryanka,-33.5907,22.2014,16.0,94,0,1.54,ZA,1612065005
456,svetlaya,64.2273,27.7285,-8.0,93,75,3.09,FI,1612065005
457,nueva loja,-32.2522,24.5308,17.4,73,0,0.61,ZA,1612065005
458,kaspiysk,55.3036,89.8339,-31.25,84,3,2.64,RU,1612065005
459,luang prabang,65.9702,-18.5286,-9.0,67,90,1.54,IS,1612065005
460,victor harbor,0.0722,42.7506,23.48,82,52,4.48,SO,1612065005
461,general roca,31.7561,25.0865,14.44,73,0,5.54,LY,1612065005
462,norman wells,25.7,100.1833,12.4,44,0,4.46,CN,1612065006
463,lagoa,37.5683,126.9778,6.0,36,75,4.12,KR,1612065006
464,dikson,-7.5989,-40.8178,21.38,83,100,4.4,BR,1612065006
465,petropavlovsk-kamchatskiy,14.7308,0.9174,18.47,24,0,4.49,NE,1612065006
466,san quintin,-20.2078,57.7625,27.22,78,40,4.12,MU,1612064862
467,manaure,47.8405,-83.4034,-16.52,94,80,2.21,CA,1612065006
468,shahpura,5.6667,73.0,27.86,69,56,4.53,MV,1612065006
469,angren,-5.5502,150.1429,26.4,86,100,2.67,PG,1612065006
470,mariental,55.3422,-131.6461,-1.0,100,1,2.87,US,1612064977
471,bogo,12.0564,-61.7485,26.0,83,20,9.26,GD,1612065006
472,anzio,5.9485,80.5353,29.15,64,42,1.71,LK,1612065006
473,sakakah,34.5686,105.8933,-0.56,65,55,2.68,CN,1612065007
474,nago,41.0002,-115.5012,-2.22,75,0,2.68,US,1612064959
475,pangnirtung,-26.7852,-60.4388,24.44,76,100,1.34,AR,1612064874
476,eskisehir,54.7804,-127.1743,-7.0,86,90,1.03,CA,1612064709
477,los llanos de aridane,58.7372,29.8453,-7.64,97,99,2.21,RU,1612065007
478,laukaa,47.9077,106.8832,-16.0,72,40,8.0,MN,1612065007
479,elko,14.0289,-84.591,19.23,97,43,0.92,NI,1612065007
480,beyneu,59.3556,5.2242,-1.0,93,75,3.6,NO,1612065007
481,pecos,11.5,42.5,21.0,78,40,2.97,DJ,1612065007
482,arraial do cabo,30.3333,10.85,11.83,39,0,5.5,LY,1612065007
483,port elizabeth,25.2833,-100.0167,24.0,43,1,2.57,MX,1612065008
484,kozhva,65.8167,87.9833,-34.36,77,33,2.51,RU,1612065008
485,narsaq,33.7333,135.9833,12.0,43,40,7.2,JP,1612065008
486,olafsvik,-41.8697,-73.8203,11.11,87,0,1.7,CL,1612064870
487,prince rupert,4.6363,9.4469,22.35,92,1,0.45,CM,1612065008
488,awbari,44.0787,-80.2041,-13.89,85,93,1.96,CA,1612064931
489,kruisfontein,37.5949,-120.9577,10.0,71,20,1.54,US,1612065008
490,kaka,20.8624,92.3058,25.17,36,80,3.97,BD,1612065008
491,kabanga,-34.426,-58.5796,17.0,82,0,4.63,AR,1612065008
492,necochea,63.4427,-20.2734,-0.33,93,100,7.47,IS,1612065008
493,bardiyah,4.423,-7.3528,25.54,89,8,2.94,CI,1612065008
494,mayo,15.5518,32.5324,17.78,22,0,3.6,SD,1612065008
495,kikwit,64.5667,143.2,-32.13,76,91,3.54,RU,1612065009
496,hokitika,-24.6333,17.9667,21.43,23,5,4.0,NA,1612065009
497,xinmin,33.7445,-118.387,12.78,85,10,1.79,US,1612064624
498,souillac,-28.55,16.4333,15.19,92,2,3.52,NA,1612065009
499,nikolskoye,29.8458,-90.1067,20.0,94,75,4.12,US,1612065009
500,kentau,-1.6792,29.2228,16.2,79,76,1.33,CD,1612064868
501,quatre cocos,14.7208,-92.4215,23.0,100,1,2.09,MX,1612065009
502,umm lajj,13.4667,22.2,15.65,29,0,5.44,TD,1612065009
503,ugoofaaru,50.2001,-66.3821,-7.0,68,82,3.09,CA,1612065009
504,labuhan,3.1191,35.5973,23.25,43,49,1.94,KE,1612065009
505,matara,0.8,127.4,28.87,65,100,1.82,ID,1612065009
506,coquimbo,26.2617,-81.8093,17.0,29,1,3.09,US,1612065009
507,san juan de colon,-2.9248,-39.9167,25.72,85,98,4.48,BR,1612065010
508,tutoia,51.8855,37.2646,1.0,100,90,4.0,RU,1612065010
509,sao gabriel da cachoeira,12.5058,39.5228,6.03,73,31,0.84,ET,1612065010
510,bathsheba,5.4112,100.3354,29.0,54,20,4.12,MY,1612065010
511,havre-saint-pierre,57.8256,26.5406,-4.44,93,90,2.57,EE,1612065010
512,rancho palos verdes,7.9986,124.2928,27.22,83,78,2.68,PH,1612065010
513,palana,52.4201,136.4853,-22.13,88,87,4.32,RU,1612065010
514,hermanus,41.4853,12.6179,12.78,71,100,2.24,IT,1612065010
515,bosaso,38.6103,-89.3726,5.56,94,100,5.36,US,1612065010
516,cozumel,48.7097,30.4483,-3.92,95,81,7.13,UA,1612065010
517,maragogi,59.1167,159.9667,-21.77,91,70,5.3,RU,1612065010
518,meadow lake,-15.1961,12.1522,22.57,76,96,2.36,AO,1612064878
519,ghatanji,-5.9,-76.0833,23.74,80,97,0.53,PE,1612065011
520,lodingen,8.4596,25.678,16.14,29,12,2.07,SS,1612065011
521,dungarpur,-31.95,141.4333,30.0,26,49,6.17,AU,1612065011
522,oranjemund,57.4667,-1.7833,-1.0,86,40,1.03,GB,1612065011
523,khartoum,39.8121,-121.5783,12.0,62,90,2.57,US,1612065011
524,saint-georges,-26.6167,-54.1333,20.52,89,3,2.22,AR,1612064714
525,alice springs,-3.3667,135.4833,30.06,62,92,1.7,ID,1612065011
526,rundu,10.346,107.0843,26.58,60,100,1.69,VN,1612065011
527,busselton,14.6937,-17.4441,19.0,82,100,4.12,SN,1612064620
528,batesville,-28.2728,29.1295,15.98,88,84,0.59,ZA,1612064861
529,tooele,43.3236,145.575,-2.0,50,20,4.12,JP,1612065011
530,korla,66.1451,-65.7125,-21.71,77,24,1.54,CA,1612064852
531,sarkand,-6.4333,39.55,26.0,83,40,4.63,TZ,1612065012
532,deputatskiy,37.4636,-122.4286,11.11,81,40,2.89,US,1612064848
533,adrar,51.226,-58.6502,-3.0,92,99,7.64,CA,1612064864
534,ketchikan,-38.2667,141.9667,18.91,58,0,5.37,AU,1612064853
535,fort nelson,18.2833,-70.3333,22.22,99,17,6.82,DO,1612065012
536,smithers,-2.6333,-80.3833,25.85,83,33,4.71,EC,1612065012
537,fairbanks,11.2842,49.1816,22.11,70,25,2.1,SO,1612064889
538,tancheng,20.7903,70.7031,22.56,22,0,4.42,IN,1612065012
539,pisco,39.4667,-87.4139,2.22,93,90,7.72,US,1612064941
540,tura,20.7,-105.2,21.11,88,1,1.03,MX,1612065012
541,jiuquan,42.8816,47.6392,4.0,93,90,3.0,RU,1612065013
542,choma,42.2506,-75.833,-11.0,85,1,1.54,US,1612065013
543,alyangula,10.6167,104.1833,29.0,51,40,0.51,KH,1612065013
544,mogadishu,20.5022,-10.0711,16.94,28,55,3.29,MR,1612064874
545,honningsvag,-2.7619,-42.2744,26.17,85,100,4.41,BR,1612065013
546,oudtshoorn,4.9333,-52.3333,27.0,89,75,4.63,GF,1612065013
547,bubaque,13.8292,20.8324,19.58,23,11,6.11,TD,1612065013
548,yellandu,65.75,150.85,-32.32,84,100,7.59,RU,1612065013
549,dharchula,70.0311,20.9714,-2.2,88,100,2.31,NO,1612065013
550,vila franca do campo,9.5334,31.6605,21.37,25,39,3.28,SS,1612065013
551,shitanjing,9.3,13.4,20.11,24,0,1.11,CM,1612065007
552,bluff,7.3833,8.5667,20.8,87,1,2.19,NG,1612065013
553,derzhavinsk,30.0381,119.7317,17.22,39,35,0.45,CN,1612065014
554,farafangana,49.6,117.4333,-24.15,86,96,2.84,CN,1612065014
555,safaga,25.0213,37.2685,17.69,50,0,4.64,SA,1612065014
556,saint george,-1.5746,9.2618,23.61,88,100,1.45,GA,1612065014
557,vetrisoaia,-3.432,10.6554,25.14,87,100,0.87,GA,1612064863
558,kuito,69.6496,18.957,-5.56,92,20,0.83,NO,1612064896
559,ahipara,49.0167,131.7,-22.28,80,2,2.87,RU,1612065014
560,gudari,46.0078,15.3156,1.11,93,90,5.14,SI,1612065014
561,fenoarivo,20.1333,78.3167,21.63,19,59,3.88,IN,1612065014
