,City,Lat,Lng,Max Temp,Humidity,Cloudiness,Wind Speed,Country,Date
0,novo cruzeiro,3.7755,98.6832,30.0,79,75,3.09,ID,1611986279
1,mahibadhoo,-0.6136,-47.3561,26.56,82,82,5.62,BR,1611986279
2,banjar,-21.3585,55.7679,31.0,55,0,5.14,RE,1611986279
3,villa carlos paz,7.3167,13.5833,15.88,30,0,1.98,CM,1611986279
4,whitefish,37.5683,126.9778,6.0,52,20,5.66,KR,1611986279
5,camacha,-54.8,-68.3,5.0,81,75,7.2,AR,1611986180
6,srandakan,-19.6667,22.2667,22.01,87,100,3.51,BW,1611986279
7,port-gentil,21.2833,-88.9333,18.28,78,0,2.89,MX,1611986280
8,boyolangu,-0.7393,-90.3518,25.56,92,28,2.24,EC,1611986280
9,chuy,21.3156,-158.0072,24.0,68,1,3.09,US,1611986280
10,teguise,-20.7377,116.8463,33.33,49,28,6.49,AU,1611986280
11,avarua,-42.8794,147.3294,22.78,68,75,9.77,AU,1611986280
12,busselton,42.097,-79.2353,-6.11,79,90,3.6,US,1611986280
13,broome,-43.249,-65.3051,12.67,57,0,2.5,AR,1611986224
14,faanui,71.6872,128.8694,-33.72,86,100,2.57,RU,1611986280
15,salo,-33.5906,26.891,20.0,80,28,1.34,ZA,1611986280
16,ambon,-23.1203,-134.9692,26.4,76,30,5.43,PF,1611986280
17,sao joao da barra,-34.5833,150.8552,25.56,84,46,4.02,AU,1611986281
18,omboue,34.0372,-4.9998,12.0,100,90,3.6,MA,1611986281
19,sinaloa,-34.4833,-54.3333,18.47,68,67,1.86,UY,1611986281
20,champerico,77.484,-69.3632,-24.93,63,10,2.55,GL,1611986281
21,callaway,5.3833,-52.95,25.07,88,87,5.73,GF,1611986281
22,cabedelo,9.0833,6.0167,20.75,23,66,0.71,NG,1611986281
23,port lincoln,-38.0023,-57.5575,19.44,82,12,1.54,AR,1611986231
24,nishihara,71.2906,-156.7887,-24.0,70,90,3.6,US,1611986281
25,labrea,-24.8667,113.6333,38.0,34,0,4.12,AU,1611986282
26,saint-denis,69.4541,-133.0374,-38.0,67,1,1.31,CA,1611986282
27,qaanaaq,-46.6,168.3333,12.33,75,0,6.08,NZ,1611986282
28,merced,-20.5167,57.5167,29.0,74,40,5.14,MU,1611986282
29,stege,-2.9248,-39.9167,25.73,84,89,5.03,BR,1611986282
30,sabang,5.6667,73.0,27.5,70,8,5.07,MV,1611986282
31,noumea,-22.9661,-42.0278,24.66,85,58,10.68,BR,1611986282
32,balotra,-21.2078,-159.775,26.0,83,7,1.54,CK,1611986026
33,waitati,41.6096,-4.7969,10.0,93,90,9.26,ES,1611986282
34,mozarlandia,-42.7826,147.0587,22.78,61,92,0.89,AU,1611986282
35,asfi,50.6789,156.125,-4.28,92,100,10.6,RU,1611986283
36,shinjo,9.4942,50.8122,24.38,66,31,6.15,SO,1611986283
37,lucapa,63.05,179.3167,-28.59,83,1,4.08,RU,1611986283
38,kudahuvadhoo,3.0707,172.7902,27.01,76,100,6.12,KI,1611986283
39,kiama,-16.4833,-151.75,27.53,67,100,2.77,PF,1611986283
40,port hardy,6.1,100.3,31.0,58,20,4.12,MY,1611986283
41,pampa,63.9242,127.4739,-41.27,78,100,1.79,RU,1611986283
42,belawan,-31.95,141.4333,30.0,32,15,6.69,AU,1611986283
43,lompoc,41.2835,-70.0995,-5.56,79,90,10.29,US,1611986283
44,lima,-24.7911,-50.0119,17.67,95,100,1.39,BR,1611986283
45,petropavlovsk-kamchatskiy,64.8945,-23.7142,-2.08,97,100,8.11,IS,1611986284
46,laramie,-2.8833,108.2667,28.48,72,100,6.62,ID,1611986284
47,nurobod,61.4681,128.9203,-39.17,80,100,1.25,RU,1611986284
48,mama,65.6145,-37.6368,-8.0,38,90,8.23,GL,1611986284
49,odweyne,-2.0226,147.2712,28.38,82,100,4.79,PG,1611986284
50,new norfolk,54.675,20.1347,1.0,75,75,4.0,RU,1611986284
51,sao miguel do araguaia,62.456,-114.3525,-28.89,76,1,2.57,CA,1611986284
52,itarema,8.3511,100.202,31.0,62,40,4.63,TH,1611986284
53,san patricio,-33.918,25.5701,18.0,72,0,1.03,ZA,1611986284
54,shimoda,39.9032,20.5794,9.0,93,89,1.54,GR,1611986284
55,sistranda,-25.2406,130.9889,35.0,29,99,7.72,AU,1611986284
56,el alto,-21.15,149.2,30.56,74,10,9.26,AU,1611986285
57,thornbury,10.5208,119.9258,26.67,75,25,13.13,PH,1611986285
58,siguiri,71.9667,102.5,-41.96,75,14,1.41,RU,1611986285
59,piacabucu,-53.15,-70.9167,8.0,81,90,6.17,CL,1611986012
60,cherskiy,32.2994,-9.2372,13.94,86,32,3.96,MA,1611986285
61,pumiao,-19.55,169.2667,26.95,72,16,7.85,VU,1611986285
62,alice springs,-33.8667,121.9,27.0,32,0,5.66,AU,1611986285
63,cody,48.9975,140.3106,-11.73,88,100,4.68,RU,1611986285
64,batagay,64.8569,-147.8028,-17.78,70,40,1.23,US,1611986285
65,plettenberg bay,67.6803,53.1512,-22.25,89,100,7.5,RU,1611986285
66,hienghene,9.9658,98.6348,32.0,55,20,3.6,TH,1611986285
67,dzilam gonzalez,38.4953,102.1739,1.44,52,0,3.06,CN,1611986286
68,molchanovo,-20.4081,57.7,29.0,74,40,5.14,MU,1611986076
69,sindor,-12.0432,-77.0282,22.78,83,0,4.63,PE,1611986259
70,matara,24.8,125.2833,19.0,52,40,5.14,JP,1611986286
71,santa maria,-18.3693,26.5019,21.59,84,75,1.15,ZW,1611986286
72,westport,-33.65,115.3333,32.22,34,0,2.24,AU,1611986286
73,hwange,-46.1927,168.8643,18.26,52,0,1.62,NZ,1611986286
74,kahului,-26.6167,-54.1333,19.07,100,37,1.17,AR,1611986286
75,namibe,19.7297,-155.09,22.0,83,75,2.06,US,1611986191
76,fort nelson,63.0128,112.4714,-39.05,81,82,1.95,RU,1611986286
77,artyom,54.3656,81.8994,-16.51,93,99,4.07,RU,1611986286
78,kapit,32.6667,-17.1,13.89,75,46,1.34,PT,1611986287
79,cairns,-22.2763,166.4572,28.0,61,0,11.83,NC,1611986287
80,kuching,-33.9258,18.4232,22.78,88,75,1.03,ZA,1611986235
81,el tigre,42.6001,-73.9662,-13.89,77,2,3.7,US,1611986287
82,kamloops,55.9333,158.7,-13.06,87,98,2.39,RU,1611986287
83,seoul,41.8069,126.9078,-8.75,82,100,3.72,CN,1611986287
84,bambous virieux,39.05,-27.9833,15.94,87,91,8.74,PT,1611986287
85,lorengau,11.6667,-9.5,18.26,24,0,1.09,GN,1611986287
86,ushuaia,41.1239,-100.7654,-3.0,93,90,2.57,US,1611986287
87,mataura,30.153,-85.5699,7.0,87,1,2.64,US,1611986288
88,chokurdakh,45.0205,-93.218,-3.89,58,90,5.14,US,1611986288
89,midland,66.9395,-53.6735,-13.85,89,5,4.62,GL,1611986288
90,avera,-41.4122,175.5153,17.22,63,23,7.2,NZ,1611986288
91,mago,-2.6741,141.3028,28.8,73,98,6.11,PG,1611986288
92,rikitea,17.4924,44.1277,18.0,27,0,1.03,SA,1611986288
93,sovetskiy,67.5447,133.385,-40.64,76,98,0.16,RU,1611986288
94,teacapan,38.7586,140.3008,2.0,86,75,4.12,JP,1611986288
95,port arthur,27.9769,-114.0611,14.61,71,4,5.56,MX,1611986288
96,kerema,-0.9492,100.3543,30.0,66,91,3.09,ID,1611986288
97,aroeiras,35.1333,140.3,8.0,23,20,3.6,JP,1611986203
98,saint-georges,40.9056,69.8023,11.0,22,84,5.14,UZ,1611986289
99,te anau,-3.6954,128.1814,32.0,62,40,4.63,ID,1611986289
100,belmonte,14.8961,-24.4956,23.55,56,98,4.78,CV,1611986289
101,jieshi,63.4427,-20.2734,1.49,85,100,4.54,IS,1611986289
102,kinwat,22.2394,68.9678,22.58,33,22,5.77,IN,1611986289
103,san ignacio,62.5833,6.1333,1.0,86,90,5.66,NO,1611986289
104,canmore,-38.2667,141.9667,17.07,71,94,5.29,AU,1611986289
105,hindupur,11.6667,92.75,28.71,66,14,5.01,IN,1611986289
106,mandurah,59.617,52.4703,-4.14,98,100,3.9,RU,1611986289
107,surt,59.7035,30.7861,-1.0,93,90,3.0,RU,1611986289
108,walldorf,-0.2167,20.8667,24.37,85,70,0.77,CD,1611986290
109,belaya gora,10.9995,122.6711,24.53,86,100,7.09,PH,1611986290
110,fortuna,70.6333,147.9167,-33.93,85,100,3.65,RU,1611986290
111,pozo colorado,69.7008,170.3133,-34.16,86,38,2.06,RU,1611986290
112,menongue,10.7398,13.8019,16.26,30,0,2.82,CM,1611986290
113,bengkulu,5.9485,80.5353,30.25,60,61,2.03,LK,1611986290
114,nome,64.3833,-173.3,-22.48,83,1,2.42,RU,1611986290
115,taltal,14.4833,79.9833,29.18,51,96,4.23,IN,1611986290
116,mayo,51.9669,12.1396,-1.11,95,95,0.89,DE,1611986290
117,valparaiso,49.5833,0.3333,9.0,100,90,6.17,FR,1611986290
118,sangar,49.758,129.523,-26.09,85,33,3.55,RU,1611986291
119,torbay,-33.6971,-53.4616,19.82,93,43,0.75,UY,1611986291
120,clyde river,31.9974,-102.0779,11.0,82,1,7.2,US,1611986081
121,buin,-0.1934,-74.7819,22.14,77,47,0.97,CO,1611986291
122,kandrian,-20.3428,57.7575,30.0,74,40,5.14,MU,1611986291
123,dembi dolo,-7.9631,145.7785,28.23,78,96,3.43,PG,1611986291
124,kuytun,57.0531,-135.33,4.0,48,90,6.69,US,1611986291
125,whitehorse,4.8833,38.0833,19.67,29,38,8.68,ET,1611986291
126,salinopolis,57.79,-152.4072,1.0,60,1,3.09,US,1611986291
127,varhaug,37.7167,-25.4333,15.0,94,40,3.09,PT,1611986291
128,mount gambier,36.6177,-121.9166,7.78,87,1,1.54,US,1611986292
129,sigayevo,54.3,110.3,-25.71,82,100,1.0,RU,1611986292
130,kodiak,50.7214,136.6319,-19.03,88,100,0.79,RU,1611986292
131,severnyy,22.5269,-81.1286,16.0,77,20,2.06,CU,1611986232
132,basoko,-25.2986,152.8535,28.89,61,75,6.69,AU,1611986292
133,dakar,-22.9575,14.5053,20.0,82,20,3.6,NA,1611986292
134,bilibino,-3.2778,-39.2689,25.82,82,95,4.47,BR,1611986292
135,vao,-21.6403,-41.0511,24.59,84,43,8.56,BR,1611986292
136,khatanga,5.4112,100.3354,32.0,51,20,2.57,MY,1611986268
137,sisimiut,43.6475,111.9767,-5.05,91,14,7.06,CN,1611986292
138,srednekolymsk,-34.5322,20.0403,18.89,85,83,3.45,ZA,1611986292
139,sapulpa,-37.8333,140.7667,18.0,72,90,6.17,AU,1611986092
140,cairo,61.3614,63.5842,-25.33,89,100,4.07,RU,1611986293
141,walvis bay,3.7833,72.9667,27.24,74,0,5.3,MV,1611986293
142,vostok,71.9167,114.0833,-38.82,76,0,1.98,RU,1611986293
143,verkhnevilyuysk,-0.6,73.0833,27.79,76,57,6.19,MV,1611986293
144,bad bramstedt,4.375,-7.7169,25.6,86,16,2.39,LR,1611986293
145,shirokiy,-10.0681,-78.1522,21.77,70,99,2.96,PE,1611986293
146,bud,70.2396,22.3479,-6.0,67,90,2.06,NO,1611986293
147,wewak,68.75,161.3,-37.88,83,4,0.31,RU,1611986293
148,kruisfontein,53.0452,158.6483,-4.0,54,20,4.0,RU,1611986293
149,abalak,42.9172,143.2044,-1.0,64,75,8.23,JP,1611986294
150,mocuba,12.0564,-61.7485,25.0,83,20,7.72,GD,1611986294
151,tasiilaq,21.4022,-157.7394,24.0,73,40,6.69,US,1611986030
152,beloha,58.6147,5.6457,-1.0,93,90,3.09,NO,1611986294
153,esperance,56.45,138.1667,-19.63,87,100,1.51,RU,1611986294
154,saint anthony,31.5,34.4667,8.89,12,39,0.45,PS,1611986164
155,nikolskoye,-9.8,-139.0333,25.88,76,5,8.06,PF,1611986294
156,sukhothai,-13.275,-50.1628,22.16,90,100,1.18,BR,1611986152
157,inongo,22.0752,-159.319,23.0,83,75,8.23,US,1611986294
158,saint-philippe,24.3448,124.1572,19.0,45,20,4.12,JP,1611986294
159,rehau,-21.2,-175.2,27.0,89,90,3.6,TO,1611986294
160,havre-saint-pierre,-33.9892,-58.2856,23.0,94,0,1.03,UY,1611986294
161,winslow,65.9939,57.5281,-20.77,91,100,4.09,RU,1611986295
162,les cayes,54.4299,31.8996,-7.13,97,100,6.31,RU,1611986295
163,nantucket,64.1835,-51.7216,-5.0,86,20,4.12,GL,1611986035
164,flinders,54.7682,-101.865,-12.4,96,99,1.98,CA,1611986295
165,bredasdorp,47.4667,84.8667,-13.93,93,85,1.13,KZ,1611986295
166,le port,66.5606,67.7975,-39.27,80,69,2.14,RU,1611986295
167,busca,-7.5453,-35.7075,21.44,93,91,0.7,BR,1611986295
168,castelnaudary,-20.6833,164.9333,24.93,79,54,5.56,NC,1611986295
169,boende,60.7161,-135.0538,-20.0,77,75,2.57,CA,1611986004
170,berlevag,49.7502,-77.6328,-20.0,84,90,4.12,CA,1611986296
171,matagami,18.2,-73.75,22.72,81,22,5.51,HT,1611986296
172,richards bay,-34.4187,19.2345,18.89,85,62,3.15,ZA,1611986296
173,padang,13.8289,77.4933,28.78,28,53,4.1,IN,1611986297
174,yarada,-45.4167,167.7167,18.01,64,1,1.09,NZ,1611986297
175,port hueneme,59.2353,163.0719,-12.97,93,100,8.41,RU,1611986297
176,sitka,43.7501,-81.7165,-6.0,79,100,3.6,CA,1611986246
177,ewa beach,28.5,-106.0,18.33,38,56,5.36,MX,1611986024
178,council bluffs,26.5881,127.9761,19.0,39,75,2.57,JP,1611986298
179,xam nua,-21.3393,55.4781,31.0,55,0,5.14,RE,1611986298
180,fez,-25.1667,45.05,33.14,43,0,3.75,MG,1611986298
181,clinton,55.7435,-97.8558,-12.0,85,90,1.03,CA,1611986298
182,vaini,41.1415,-73.3579,-9.0,48,1,6.69,US,1611986298
183,linfen,68.0546,166.4372,-32.01,80,0,1.89,RU,1611986299
184,barrow,46.6166,10.7002,-0.56,93,40,2.57,IT,1611986299
185,imeni poliny osipenko,49.9811,92.0667,-16.06,91,72,1.55,MN,1611986299
186,bonavista,62.487,17.3257,-15.56,85,72,4.12,SE,1611986299
187,lubao,56.1667,91.8167,-24.0,70,40,6.0,RU,1611986299
188,kaeo,20.8947,-156.47,22.0,78,40,6.17,US,1611986300
189,lokosovo,7.85,9.7833,20.17,24,10,2.06,NG,1611986300
190,ossora,36.2083,-115.9839,4.44,70,26,0.89,US,1611986012
191,cruzeiro do sul,65.282,-126.8329,-35.0,75,75,1.03,CA,1611986300
192,severo-kurilsk,53.6,7.2,-2.22,100,68,0.51,DE,1611986300
193,tyrma,30.0561,70.6348,20.97,20,12,0.86,PK,1611986300
194,balabac,65.5833,-171.0,-28.34,81,0,4.08,RU,1611986300
195,port elizabeth,62.2266,-6.589,-1.0,80,75,1.03,FO,1611986300
196,rucar,39.0062,-77.4286,-2.78,46,75,3.09,US,1611986300
197,polunochnoye,-4.2761,-55.9836,25.0,100,0,0.48,BR,1611986300
198,bambari,22.8909,-109.9124,19.44,77,1,1.03,MX,1611986031
199,carei,-5.1989,-35.4608,25.0,83,40,2.06,BR,1611986301
200,sokoni,67.8006,130.4114,-36.54,82,100,0.81,RU,1611986301
201,tuktoyaktuk,-3.8004,102.2655,29.45,65,99,4.72,ID,1611986301
202,siirt,29.0361,114.5636,11.12,56,100,0.36,CN,1611986301
203,torbat-e jam,60.9167,-46.05,6.0,31,75,14.92,GL,1611986301
204,mokhsogollokh,36.5438,31.9998,5.0,60,40,3.6,TR,1611986301
205,ambovombe,15.1718,44.3244,16.17,32,28,1.09,YE,1611986301
206,cooma,51.5,156.5167,-7.44,93,100,6.16,RU,1611986301
207,bethel,22.2855,114.1577,18.89,65,0,2.24,HK,1611986168
208,provideniya,32.3333,-117.0333,10.0,93,40,2.26,MX,1611986301
209,koboko,72.7868,-56.1549,-22.67,86,13,4.34,GL,1611986301
210,oxford,20.8624,92.3058,26.98,31,35,3.4,BD,1611986301
211,lushoto,66.3167,-179.1667,-30.54,84,0,3.3,RU,1611986301
212,tiznit,43.3183,1.9545,9.0,100,75,3.09,FR,1611986302
213,ugoofaaru,42.8,93.45,-0.19,76,8,1.08,CN,1611986302
214,puerto ayora,-35.1667,173.1667,18.81,64,47,2.74,NZ,1611986302
215,ayan,14.3,-91.9167,18.33,93,72,0.45,GT,1611986302
216,kurumkan,-46.2817,169.8464,14.44,69,19,2.68,NZ,1611986302
217,suleja,48.4111,-114.3376,0.0,93,90,0.37,US,1611986302
218,lebu,44.5181,7.4743,6.11,80,38,1.54,IT,1611986302
219,saint george,66.8333,70.8333,-38.42,81,40,3.07,RU,1611986302
220,general roca,53.4896,50.0375,-6.0,100,90,2.0,RU,1611986302
221,college,17.3333,42.6667,24.0,83,20,1.54,SA,1611986302
222,alanya,-15.1961,12.1522,23.03,80,98,3.71,AO,1611986302
223,cuamba,36.5449,61.1577,16.0,20,20,3.09,IR,1611986303
224,laval,8.8875,-64.2454,22.16,77,46,5.7,VE,1611986303
225,kashi,62.5333,155.8,-35.09,81,100,2.84,RU,1611986303
226,babylon,60.4667,166.1,-18.91,94,100,6.35,RU,1611986303
227,nokaneng,43.7548,-71.3967,-12.78,72,17,2.68,US,1611986303
228,muncar,-8.9266,125.4092,20.89,89,100,2.91,TL,1611986303
229,banepa,48.9329,-125.5528,5.0,90,100,1.79,CA,1611986303
230,mokolo,-8.19,114.9675,30.0,70,20,4.12,ID,1611986303
231,ahuimanu,68.5333,146.4167,-34.48,85,100,1.33,RU,1611986303
232,huarmey,10.1664,40.6453,22.96,54,28,1.58,ET,1611986303
233,krasnogorskoye,73.5069,80.5464,-36.71,84,98,4.13,RU,1611986303
234,haines junction,33.1434,-117.1661,8.89,93,1,2.05,US,1611986304
235,louiseville,38.5167,-28.7,17.06,93,98,10.12,PT,1611986304
236,quatre cocos,-34.0033,24.7314,20.0,71,0,0.45,ZA,1611986304
237,svetlyy,-21.05,31.6667,25.26,82,16,2.08,ZW,1611986304
238,katsuura,-10.6167,150.6667,28.15,79,100,4.48,PG,1611986304
239,cabo san lucas,46.2559,-72.9415,-12.0,56,19,6.17,CA,1611986049
240,vanimo,42.6667,9.3333,15.0,40,0,2.06,FR,1611986304
241,nicoya,28.6585,-17.9182,17.0,88,75,4.12,ES,1611986304
242,touros,-41.8697,-73.8203,10.0,81,0,2.57,CL,1611986304
243,punta arenas,47.8405,-83.4034,-20.54,92,85,0.85,CA,1611986304
244,stokmarknes,11.2833,-15.8333,25.83,60,0,3.79,GW,1611986304
245,ahipara,-29.9533,-71.3436,16.0,94,20,3.09,CL,1611985996
246,aripuana,38.8876,-76.5119,-1.11,50,90,3.09,US,1611986304
247,anadyr,5.3505,48.5268,25.84,67,55,8.31,SO,1611986305
248,zhigalovo,-34.6833,150.8667,27.78,80,52,6.26,AU,1611986305
249,chiredzi,1.55,110.3333,27.0,89,40,1.54,MY,1611986305
250,port alfred,21.4267,39.8261,19.87,34,0,4.62,SA,1611986305
251,oranjemund,-31.4241,-64.4978,22.22,92,22,4.92,AR,1611986305
252,aksarka,-9.6567,120.2641,27.96,78,100,6.7,ID,1611986305
253,sarakhs,53.3808,142.9564,-18.65,88,100,5.18,RU,1611986305
254,dera ghazi khan,21.4612,-71.1419,22.08,71,7,8.76,TC,1611986305
255,gedo,-3.7728,-61.6442,22.78,98,47,0.66,BR,1611986305
256,hithadhoo,30.8712,105.3845,15.75,40,54,0.41,CN,1611986305
257,thompson,34.6391,-120.4579,6.0,93,1,1.54,US,1611986305
258,dikson,60.8697,60.4153,-25.64,90,100,2.63,RU,1611986305
259,leshukonskoye,48.5168,-72.2324,-17.0,71,90,2.06,CA,1611986305
260,ponta do sol,-28.783,32.0377,25.92,75,66,1.22,ZA,1611986306
261,yermakovskoye,-1.5746,9.2618,25.08,90,99,2.29,GA,1611986306
262,suratgarh,12.1791,125.5072,26.46,78,100,10.53,PH,1611986306
263,sterling,45.5234,-122.6762,5.56,92,100,0.45,US,1611986256
264,culaman,48.6499,-53.1147,-2.22,93,100,2.57,CA,1611986306
265,port blair,46.4333,26.4,4.44,59,100,2.52,RO,1611986306
266,iskateley,-2.5744,150.7967,28.93,77,77,6.01,PG,1611986306
267,manggar,-34.7333,135.8667,18.9,58,14,7.2,AU,1611986306
268,yulara,41.8334,-70.8328,-10.56,57,1,5.14,US,1611986306
269,souillac,53.0167,7.85,-0.56,95,45,2.39,DE,1611986307
270,san vicente,30.4833,-115.95,12.55,74,3,1.75,MX,1611986307
271,polovinnoye,-23.7,133.8833,36.0,32,40,5.66,AU,1611986307
272,mangalam,41.5388,-8.6151,14.0,88,75,3.09,PT,1611986117
273,riyadh,70.4692,-68.5914,-31.0,76,1,2.06,CA,1611986307
274,kuala kedah,-9.0763,143.2092,26.63,86,99,5.4,PG,1611986307
275,mecca,63.9333,31.65,-7.63,97,100,3.3,RU,1611986307
276,kamarion,-2.4683,28.8242,19.41,78,78,0.72,CD,1611986182
277,roberval,35.7333,140.8333,10.0,24,20,9.77,JP,1611986307
278,sanmenxia,26.1842,127.7558,19.0,31,40,5.66,JP,1611986307
279,smoky lake,64.2539,-15.2082,1.09,78,75,3.68,IS,1611986307
280,san rafael,45.57,-73.692,-14.0,66,55,1.03,CA,1611986282
281,asau,43.2686,-7.5406,10.0,84,61,6.71,ES,1611986308
282,jamestown,35.5362,-100.9599,10.0,66,1,7.2,US,1611986296
283,nuuk,3.4136,30.9599,24.76,20,58,4.81,UG,1611986308
284,okha,14.6937,-17.4441,18.0,55,0,5.66,SN,1611986308
285,okhotsk,-46.1333,167.6833,16.08,62,0,2.79,NZ,1611986308
286,yerbogachen,11.1373,123.7228,26.53,78,99,12.3,PH,1611986308
287,morondava,12.6675,-0.5758,19.03,24,30,4.52,BF,1611986308
288,kurumoch,25.5198,90.2201,23.17,26,0,2.19,IN,1611986308
289,san pedro,15.1167,105.7833,29.0,42,40,1.03,LA,1611986308
290,san marcos,23.1536,-81.2514,16.0,77,20,2.06,CU,1611986308
291,folldal,7.7669,-72.225,17.09,76,31,0.72,VE,1611986308
292,rabak,47.6666,-52.7314,-2.22,86,90,11.32,CA,1611986309
293,pevek,5.6,14.0833,17.45,36,44,0.78,CM,1611986309
294,tungor,10.1483,-85.452,25.0,61,0,7.2,CR,1611986309
295,kostrzyn,13.1809,32.74,20.0,23,0,7.7,SD,1611986309
296,mackay,52.1226,9.736,-1.11,84,97,1.34,DE,1611986309
297,north platte,64.5011,-165.4064,-21.0,65,1,9.77,US,1611986309
298,saint-pierre,67.45,153.6833,-37.09,83,99,1.47,RU,1611986309
299,rudnichnyy,56.55,37.8833,-6.31,97,91,4.2,RU,1611986309
300,narasannapeta,-14.6585,17.691,17.56,91,66,1.72,AO,1611986309
301,bogorodskoye,9.75,-63.1767,20.21,93,29,2.2,VE,1611986309
302,verkhoyansk,20.5169,-13.0499,17.82,28,33,5.38,MR,1611986309
303,bubaque,39.8885,4.2658,12.0,94,0,2.57,ES,1611986309
304,nago,25.8333,72.2333,23.0,18,0,1.02,IN,1611986308
305,alta floresta,-8.4667,140.3333,29.01,77,100,7.63,ID,1611986310
306,friesoythe,-36.7167,-73.1167,14.0,100,90,4.63,CL,1611986310
307,tilichiki,56.4216,53.7757,-3.89,92,94,0.89,RU,1611986310
308,portland,38.3906,35.4922,-6.0,86,75,2.06,TR,1611986291
309,druzhba,40.6957,-73.3257,-7.78,49,1,6.17,US,1611986310
310,upernavik,63.4453,120.3167,-40.04,79,100,1.28,RU,1611986310
311,kaitangata,-35.3333,-72.4167,15.79,94,100,4.54,CL,1611986310
312,kutum,27.95,80.7667,17.11,35,0,2.97,IN,1611986310
313,shkoder,34.1667,77.5833,-13.6,66,0,0.77,IN,1611986310
314,jasper,17.1561,-89.0714,21.0,94,90,1.27,BZ,1611986310
315,arraial do cabo,49.1447,56.4872,-6.37,97,52,3.0,KZ,1611986311
316,usinsk,-5.8092,-61.3003,22.75,98,92,0.36,BR,1611986311
317,scarborough,36.8,25.8167,16.67,71,100,6.26,GR,1611986311
318,bluff,5.5171,100.4265,32.0,51,20,2.57,MY,1611986311
319,vila franca do campo,-30.1811,-50.2056,23.69,89,9,2.54,BR,1611986311
320,cidreira,7.9868,117.0645,27.84,75,54,9.36,PH,1611986311
321,zhigansk,38.7666,-120.5177,0.56,97,93,2.69,US,1611986311
322,maturin,50.2334,-63.5986,-14.0,66,1,4.63,CA,1611986311
323,lagoa,5.8933,95.3214,27.34,80,100,11.39,ID,1611986311
324,rawson,37.1041,-113.5841,3.89,93,90,3.09,US,1611986074
325,mar del plata,-33.4569,-70.6483,17.22,94,90,3.09,CL,1611986169
326,aklavik,27.6298,85.5214,15.0,44,20,1.54,NP,1611986307
327,praia,41.7597,86.1469,0.04,74,0,3.87,CN,1611986311
328,jiayuguan,50.2001,-66.3821,-13.0,66,1,4.63,CA,1611986282
329,beringovskiy,78.2186,15.6401,-18.0,50,20,11.83,SJ,1611986312
330,develi,18.7369,7.3853,12.86,33,0,1.89,NE,1611986312
331,elze,41.3712,-73.414,-11.0,52,1,4.12,US,1611986312
332,poum,-33.7333,-70.75,17.22,94,90,3.09,CL,1611986312
333,puerto leguizamo,68.5646,14.9108,-5.56,59,11,2.29,NO,1611986312
334,abu kamal,-7.2586,-64.7981,23.08,97,100,0.77,BR,1611986312
335,umea,60.0625,71.4789,-27.93,86,94,3.48,RU,1611986312
336,plymouth,64.8378,-147.7164,-17.78,77,1,1.16,US,1611986312
337,broken hill,40.5982,-124.1573,8.33,87,90,7.2,US,1611986312
338,kualakapuas,67.6333,134.6333,-41.59,77,100,0.47,RU,1611986312
339,atar,35.244,60.6225,12.33,35,71,2.92,IR,1611986312
340,ngaoundere,20.785,-156.4656,22.0,78,40,6.17,US,1611986312
341,phan thiet,51.8,68.3333,-7.78,93,54,4.34,KZ,1611986313
342,dezhou,-29.6842,-53.8069,22.72,86,73,1.9,BR,1611986313
343,olafsvik,14.2,24.6667,11.93,38,0,5.22,SD,1611986313
344,hervey bay,22.8134,115.8257,20.56,51,0,8.21,CN,1611986313
345,carmelo,66.7697,123.3711,-40.15,79,100,1.2,RU,1611986313
346,knysna,2.0371,45.3438,25.0,65,20,5.14,SO,1611986313
347,waipawa,-45.75,170.5667,12.22,74,33,6.71,NZ,1611986313
348,butaritari,16.8634,-99.8901,24.51,71,68,1.53,MX,1611986313
349,gewane,44.5263,-109.0565,2.22,51,1,3.17,US,1611986313
350,osmena,16.6362,1.637,15.99,29,51,6.59,ML,1611986313
351,yellowknife,53.2831,92.4003,-4.19,93,100,7.32,RU,1611986314
352,kedrovyy,37.4486,116.2925,12.07,32,9,1.13,CN,1611986314
353,pyaozerskiy,5.9603,125.6586,29.0,65,90,5.14,PH,1611986314
354,karratha,31.953,12.0261,11.48,49,0,4.61,LY,1611986314
355,carnarvon,29.3167,73.9,20.28,21,0,1.33,IN,1611986314
356,san quintin,39.4735,-118.7774,-1.0,93,40,3.09,US,1611986314
357,pakxe,42.6403,125.5118,-14.66,90,36,3.85,CN,1611986314
358,egvekinot,-16.1564,33.5867,24.0,100,75,1.86,MZ,1611986314
359,vila velha,50.0833,132.1667,-22.11,80,66,1.51,RU,1611986314
360,chihuahua,10.9333,108.1,29.4,42,100,4.34,VN,1611986314
361,shubarkuduk,7.4167,81.8167,27.89,77,12,5.29,LK,1611986185
362,havoysund,-8.4192,20.7447,19.95,96,92,0.43,AO,1611986315
363,kailua,69.2167,-51.1,-17.0,55,0,3.6,GL,1611986315
364,karla,35.9987,-96.1142,13.0,58,20,6.17,US,1611986315
365,cape town,-15.8631,-38.8828,26.0,73,20,5.14,BR,1611986315
366,sayyan,54.1742,103.0304,-15.12,92,100,1.15,RU,1611986315
367,san policarpo,25.3503,73.3089,23.35,18,0,0.3,IN,1611986315
368,vestmannaeyjar,50.6665,-120.3192,-5.0,86,40,1.03,CA,1611986315
369,ucluelet,58.1286,68.5944,-16.43,94,100,4.94,RU,1611986315
370,klaksvik,-9.1061,124.8925,25.46,86,100,5.1,ID,1611986315
371,alofi,70.9963,24.6622,-6.0,73,40,6.33,NO,1611986315
372,lerwick,-8.4333,114.3333,28.5,78,100,1.78,ID,1611986315
373,hobyo,-22.4333,-151.3333,27.33,70,20,5.65,PF,1611986316
374,leningradskiy,-10.3353,-67.1856,22.54,96,86,1.06,BR,1611986316
375,kepala batas,28.017,-97.5169,19.44,77,90,5.14,US,1611986316
376,gasa,-34.6667,-54.9167,20.0,82,0,1.54,UY,1611986316
377,waingapu,29.5833,-9.5,13.09,52,0,0.46,MA,1611986316
378,jaguey grande,69.4865,88.3972,-34.46,68,0,2.11,RU,1611986316
379,talcahuano,54.1169,-112.4686,-20.0,84,0,2.06,CA,1611986316
380,jadu,-33.0393,-71.6273,18.33,81,100,2.95,CL,1611986316
381,duldurga,-9.8756,-56.0861,21.96,97,99,0.22,BR,1611986316
382,baoshan,-27.0569,-49.5178,23.33,100,100,0.62,BR,1611986316
383,skibbereen,-8.1181,111.8935,28.79,73,100,1.43,ID,1611986316
384,kamenka,37.9326,41.9403,3.0,100,75,3.6,TR,1611986316
385,ishigaki,-29.5128,-51.9853,21.67,96,11,0.45,BR,1611986317
386,ranong,50.677,36.5532,-5.0,86,40,4.0,RU,1611986317
387,timra,39.447,-86.1758,-3.33,82,48,3.61,US,1611986317
388,nanortalik,42.1584,-72.3287,-12.22,66,1,2.86,US,1611986072
389,obihiro,18.7333,-103.6833,23.45,66,88,1.46,MX,1611986317
390,kapaa,52.3985,17.2281,-2.22,80,100,0.89,PL,1611986317
391,xining,17.25,99.6667,28.0,54,20,2.06,TH,1611986317
392,oranjestad,-1.95,18.2667,22.6,93,100,4.62,CD,1611986317
393,victoria,61.1333,74.8167,-34.68,83,49,2.41,RU,1611986317
394,airai,30.0626,31.2497,12.0,66,0,4.63,EG,1611986081
395,ulaangom,53.5739,142.9478,-18.36,88,100,4.9,RU,1611986317
396,lavrentiya,18.0264,-77.8487,24.0,78,40,3.6,JM,1611986317
397,bereda,36.75,139.6167,5.0,23,18,7.15,JP,1611986318
398,el dorado,50.25,12.0333,2.78,95,100,7.15,DE,1611986318
399,zaysan,-27.7951,-64.2615,28.74,49,84,5.27,AR,1611986318
400,atambua,40.9167,39.8333,8.0,61,0,1.54,TR,1611986241
401,gao,2.0167,112.9333,30.14,67,100,1.39,MY,1611986318
402,mpongwe,-19.8436,34.8389,28.0,89,40,1.54,MZ,1611986318
403,taihe,54.3419,101.5036,-14.57,94,100,1.82,RU,1611986318
404,kabare,68.2191,-135.0107,-33.0,75,96,1.03,CA,1611986318
405,doliana,51.3223,42.7678,0.56,95,100,1.34,RU,1611986318
406,kihei,-18.0607,13.84,21.53,57,100,1.71,NA,1611986318
407,saskylakh,70.3705,31.1107,-3.1,97,100,9.79,NO,1611986319
408,arlit,52.2953,86.1979,-5.55,97,100,5.53,RU,1611986319
409,ostersund,35.0242,-110.6974,-2.0,86,20,3.09,US,1611986319
410,samarai,58.3106,112.8986,-31.19,75,20,1.95,RU,1611986319
411,coquimbo,34.6667,138.95,9.0,40,20,3.09,JP,1611986319
412,kawalu,47.6833,22.4667,3.0,93,90,2.06,RO,1611986319
413,ibirama,49.3064,8.6453,7.78,71,100,6.89,DE,1611986319
414,klyuchevskiy,37.6775,-113.0619,-1.0,80,40,5.14,US,1611986319
415,pacific grove,38.0794,31.3664,0.63,85,83,3.12,TR,1611986319
416,tautira,52.4201,136.4853,-19.51,91,100,3.81,RU,1611986319
417,pak phanang,53.5317,119.4519,-27.89,81,25,1.31,RU,1611986319
418,placido de castro,9.4092,45.064,21.19,43,0,2.1,SO,1611986320
419,luderitz,37.2001,-94.3502,9.44,57,75,8.75,US,1611986320
420,tymovskoye,42.0683,19.5126,6.0,93,90,2.57,AL,1611986320
421,hay river,-6.9811,-34.8339,25.0,94,40,3.09,BR,1611986291
422,faya,66.0449,-17.3389,-4.0,86,90,6.17,IS,1611986320
423,jinchang,50.6761,113.5931,-21.66,85,100,1.78,RU,1611986320
424,cockburn town,-17.4681,-41.8753,15.98,97,5,0.21,BR,1611986320
425,tiksi,29.0331,21.5482,12.13,71,0,5.01,LY,1611986320
426,maniitsoq,40.4163,-120.653,2.0,69,20,3.6,US,1611986235
427,sulangan,-3.0091,114.3876,28.0,78,20,1.27,ID,1611986320
428,hoquiam,-43.3002,-65.1023,13.5,53,0,1.78,AR,1611986320
429,bida,7.7102,81.6924,27.33,78,58,5.43,LK,1611986321
430,black river,60.7522,-137.5108,-26.0,76,100,1.03,CA,1611986321
431,najran,69.3833,178.4167,-30.23,85,100,3.07,RU,1611986321
432,comodoro rivadavia,43.3713,-8.396,12.22,71,40,6.17,ES,1611986321
433,sao filipe,48.9167,2.3333,8.33,100,90,5.14,FR,1611986321
434,palmer,25.0,-107.5,18.0,72,20,0.75,MX,1611986321
435,constitucion,51.55,-9.2667,6.0,100,75,6.69,IE,1611986321
436,kalmunai,45.6169,-61.3485,-2.78,74,40,5.14,CA,1611986321
437,fairbanks,-28.55,16.4333,16.82,81,2,5.36,NA,1611986321
438,wuhu,54.8097,105.1578,-20.73,86,100,0.62,RU,1611986321
439,anori,60.1432,-45.2371,0.48,89,100,3.78,GL,1611986321
440,hirara,62.8629,51.8905,-8.05,96,100,5.2,RU,1611986321
441,moultonborough,9.7667,78.6667,29.0,65,20,1.54,IN,1611986322
442,santiago,-14.8031,36.5372,24.38,88,91,0.9,MZ,1611986322
443,sarkikaraagac,46.5586,131.4244,-19.39,86,100,2.3,CN,1611986322
444,omsukchan,31.2089,16.5887,15.85,50,3,7.46,LY,1611986322
445,yar-sale,-9.1667,-60.6333,23.08,97,100,0.53,BR,1611986322
446,pahrump,13.0667,-59.5333,25.0,73,40,6.17,BB,1611986322
447,severo-yeniseyskiy,-34.0527,23.3716,20.93,63,0,2.46,ZA,1611986322
448,castro,-20.3297,-40.2925,25.0,83,20,2.57,BR,1611986322
449,rocha,42.587,-82.9199,-9.44,92,1,1.22,US,1611986297
450,hami,30.3586,50.7981,13.0,67,75,3.09,IR,1611986322
451,elat,-7.3817,108.2082,28.42,65,100,0.48,ID,1611986322
452,sinnamary,50.8456,142.655,-15.78,90,100,4.13,RU,1611986322
453,dauphin,-20.2078,57.7625,30.0,74,40,5.14,MU,1611986323
454,mahon,31.3347,-109.9483,7.22,74,10,3.13,MX,1611986323
455,lancaster,36.6167,101.7667,-3.18,63,100,1.77,CN,1611986323
456,batagay-alyta,38.8,121.2667,1.0,64,0,6.0,CN,1611986323
457,lakhimpur,-36.2333,149.1333,25.0,41,75,6.69,AU,1611986323
458,wukari,51.7522,-1.256,7.0,93,75,3.6,GB,1611986323
459,daru,58.8053,-122.7002,-28.0,76,40,1.03,CA,1611986323
460,husavik,29.0605,-13.564,15.0,88,0,3.09,ES,1611986323
461,norden,57.5817,83.7692,-30.95,85,0,2.01,RU,1611986323
462,teknaf,60.8156,-115.7999,-30.0,76,32,2.06,CA,1611986323
463,hasaki,52.0428,33.9453,-5.51,97,99,6.61,UA,1611986324
464,kromy,45.4,25.1667,4.44,89,100,0.81,RO,1611986324
465,atuona,41.0586,-94.3614,1.0,100,1,6.69,US,1611986324
466,hobart,-34.6177,-68.3301,14.86,90,100,5.6,AR,1611986324
467,talnakh,-26.6481,15.1594,19.79,43,0,10.19,NA,1611986324
468,do gonbadan,63.7256,8.834,1.0,86,75,4.63,NO,1611986324
469,lasa,-16.9167,145.7667,31.0,66,40,8.23,AU,1611986324
470,bandarbeyla,-3.5534,143.6268,29.68,71,100,7.38,PG,1611986324
471,paamiut,50.6996,-127.4199,6.0,87,90,8.75,CA,1611986324
472,tete,-16.8392,36.9856,26.25,89,93,1.0,MZ,1611986324
473,rani,65.8333,31.1667,-11.61,95,100,4.74,RU,1611986324
474,mount isa,57.7556,-3.9123,-1.67,100,40,1.03,GB,1611986325
475,dongfeng,-33.0153,27.9116,20.0,83,20,4.12,ZA,1611986325
476,varadero,-23.4923,-58.7972,26.11,74,86,4.17,PY,1611986325
477,sept-iles,-13.5091,28.155,21.1,86,79,1.32,ZM,1611986325
478,coahuayana,-34.0363,23.0471,19.0,72,20,1.03,ZA,1611986325
479,trelew,19.6333,78.2,26.72,33,43,3.5,IN,1611986325
480,tuatapere,70.8578,29.0864,-3.11,96,100,10.32,NO,1611986325
481,nikko,9.0167,37.45,17.36,35,84,1.19,ET,1611986326
482,moerai,21.4447,-157.8378,24.0,73,40,6.69,US,1611986326
483,naco,64.75,177.4833,-23.0,70,0,1.0,RU,1611986326
484,castelo do piaui,34.7747,111.1814,10.36,37,96,3.76,CN,1611986326
485,longyearbyen,-22.6667,167.4833,24.47,75,23,9.01,NC,1611986326
486,bone,27.5833,91.8667,5.82,43,0,3.35,IN,1611986326
487,tura,59.3833,143.3,-22.25,85,0,3.98,RU,1611986326
488,ozernovskiy,61.994,-49.6678,2.05,76,95,5.49,GL,1611986326
489,ust-uda,52.6876,35.7667,-6.82,97,98,5.9,RU,1611986326
490,betsiamites,53.2514,140.1822,-17.39,91,100,2.16,RU,1611986326
491,norman wells,46.9809,-123.8893,4.44,87,90,6.17,US,1611986326
492,merauke,-39.0333,-67.5833,17.0,82,0,4.3,AR,1611986326
493,dingle,37.1666,-120.7516,7.22,81,1,0.62,US,1611986052
494,flin flon,-45.8667,-67.5,9.0,76,0,0.51,AR,1611986038
495,cedar city,53.9167,9.8833,-1.11,95,96,0.89,DE,1611986327
496,port hawkesbury,19.75,10.25,10.3,41,4,3.2,NE,1611986327
497,kastamonu,-19.0595,-169.9187,25.0,94,100,2.06,NU,1611986327
498,hohhot,-32.55,115.7,33.89,19,0,6.69,AU,1611986110
499,ancud,-35.1,173.7833,20.56,59,48,3.13,NZ,1611986327
500,codrington,46.4856,135.8833,-20.86,89,100,1.98,RU,1611986327
501,goderich,24.6877,46.7219,15.0,33,57,5.66,SA,1611986263
502,oksfjord,2.6708,72.8944,27.12,79,0,5.94,MV,1611986327
503,korla,-4.7833,38.2833,19.93,76,100,1.17,TZ,1611986328
504,narsaq,-25.4,-70.4833,17.07,75,4,0.4,CL,1611986328
505,bastia,38.421,-121.4238,7.22,87,1,1.7,US,1611986328
506,kavieng,9.1758,7.1808,21.68,22,44,2.43,NG,1611986328
507,ilulissat,-25.1667,46.0833,31.22,49,5,2.63,MG,1611986328
508,trairi,61.2767,108.0108,-37.87,80,55,3.36,RU,1611986328
509,esso,5.768,20.6757,23.7,57,74,1.76,CF,1611986328
510,ostrovnoy,38.7153,112.7575,3.69,56,72,1.73,CN,1611986328
511,leh,14.35,121.0167,29.0,54,20,6.17,PH,1611986329
512,harper,34.1478,-119.1951,10.0,87,1,2.06,US,1611986329
513,dwarka,54.2797,-0.4044,2.78,78,99,2.24,GB,1611986286
514,salym,-5.3222,-41.5525,23.31,80,100,1.33,BR,1611986329
515,solnechnyy,33.194,-82.5271,0.0,93,1,2.06,US,1611986329
516,isangel,-20.7333,139.5,38.0,23,75,4.63,AU,1611986329
517,fallon,50.0,88.6667,-15.2,87,35,0.39,RU,1611986329
518,hilo,17.65,83.2667,27.0,69,40,2.06,IN,1611986329
519,georgetown,20.4197,104.0439,18.77,60,63,1.07,LA,1611986329
520,yuanping,42.2506,-75.833,-11.67,85,90,2.57,US,1611986329
521,acapulco,-35.1167,-71.2833,17.22,10,100,1.56,CL,1611986329
522,manicore,-14.7447,-50.5706,22.09,85,100,0.97,BR,1611986329
523,linjiang,54.7914,65.9864,-7.88,94,100,4.84,RU,1611986330
524,faro,-20.9373,55.2919,26.0,83,75,9.77,RE,1611986330
525,salalah,51.1494,-100.0502,-9.0,100,90,4.63,CA,1611986330
526,roald,18.3851,42.4509,14.0,26,0,1.63,SA,1611986330
527,chernyshevskiy,59.3723,24.9275,-4.44,93,90,4.63,EE,1611986330
528,maldonado,22.75,108.4833,18.0,59,75,4.0,CN,1611986330
529,yining,-0.7193,8.7815,25.0,94,90,0.51,GA,1611986330
530,creston,37.0194,-7.9322,15.0,100,90,6.17,PT,1611986330
531,along,-6.4333,39.55,27.0,83,75,3.6,TZ,1611986331
532,jizan,31.3366,118.3755,15.0,31,0,1.0,CN,1611986331
533,santiago del estero,33.0833,-16.3333,16.0,94,75,4.12,PT,1611986331
534,susanville,17.0151,54.0924,23.0,53,75,3.09,OM,1611986283
535,lososina,51.0834,-115.3521,-5.0,92,9,2.57,CA,1611986331
536,trabzon,28.1667,94.7667,21.83,45,27,0.82,IN,1611986331
537,tawang,41.3114,-105.5911,0.56,46,1,2.06,US,1611986331
538,san cristobal,14.9167,120.55,29.0,57,75,3.09,PH,1611986331
539,sobolevo,18.4167,84.05,28.51,51,0,2.76,IN,1611986331
540,oistins,65.4167,-52.9,-7.45,75,0,3.24,GL,1611986331
541,hermanus,34.4506,40.9171,9.14,64,32,5.57,SY,1611986332
542,arroyo,-17.7333,-149.15,27.0,69,90,1.03,PF,1611986332
543,los llanos de aridane,18.0858,-15.9785,16.0,23,79,4.12,MR,1611986243
544,vardo,40.2504,-76.2499,-3.89,63,74,0.45,US,1611986332
545,balintore,-6.2167,149.55,30.65,66,84,6.68,PG,1611986332
546,barcelos,8.5333,34.8,20.68,27,71,3.6,ET,1611986332
547,albany,-10.4056,-36.4344,25.02,83,97,3.42,BR,1611986332
548,batticaloa,36.0889,111.5189,8.72,39,89,2.9,CN,1611986332
549,laguna,14.9215,-23.5087,23.0,56,0,7.2,CV,1611986332
550,molina,22.55,-105.75,19.23,78,11,1.11,MX,1611986333
551,mogadishu,-20.2833,44.2833,29.1,75,13,4.63,MG,1611986333
552,itaituba,41.2619,-95.8608,3.33,81,90,7.72,US,1611986333
553,ordynskoye,-4.2714,-81.2147,23.79,72,46,4.64,PE,1611986333
554,guerrero negro,39.4547,75.9797,0.0,37,0,2.0,CN,1611986333
555,erenhot,40.8106,111.6522,-1.0,40,0,4.0,CN,1611986333
556,opuwo,68.0531,39.5131,-11.9,94,100,7.64,RU,1611986333
557,mahebourg,29.5581,34.9482,11.42,49,0,0.69,IL,1611986218
558,jalu,-7.9386,110.2506,29.12,69,100,3.79,ID,1611986333
559,betare oya,39.8167,98.3,-1.35,65,0,1.81,CN,1611986333
560,agadez,-6.8844,112.2051,26.25,85,100,8.35,ID,1611986333
561,labuhan,54.987,12.2846,-1.11,10,100,6.72,DK,1611986333
562,kosh-agach,-20.2333,164.0167,26.49,78,41,4.01,NC,1611986334
563,a coruna,60.1545,-1.1494,1.0,60,10,5.14,GB,1611986334
564,boulsa,63.8284,20.2597,-15.0,92,90,4.63,SE,1611986334
565,nouakchott,12.524,-70.027,26.0,78,20,6.69,AW,1611986067
566,rosarito,40.4723,50.333,7.0,81,90,4.12,AZ,1611986334
567,atbasar,48.9413,-68.646,-14.0,66,1,4.12,CA,1611986334
568,muyezerskiy,45.6086,10.531,1.11,100,18,1.54,IT,1611986334
569,east london,52.2333,-2.55,5.0,87,100,4.02,GB,1611986334
570,beira,41.5,33.6667,-2.51,86,95,1.56,TR,1611986334
571,kovur,62.1325,9.9968,-12.78,86,45,2.3,NO,1611986334
572,hofn,63.1792,14.6357,-22.0,77,90,0.76,SE,1611986335
573,yabelo,-37.6167,-73.65,12.97,91,69,2.78,CL,1611986335
574,chapleau,64.8989,45.7622,-8.65,97,100,3.68,RU,1611986335
575,havre,60.3725,93.0408,-37.45,82,84,1.82,RU,1611986335
576,ribeira grande,1.2391,23.616,24.07,84,87,0.36,CD,1611986335
